避難場所_施設名称,地方公共団体コード,都道府県,指定市区町村名,所在地住所,緯度,経度,避難対象_洪水,避難対象_崖崩れ、土石流及び地滑り,避難対象_高潮,避難対象_地震,避難対象_津波,避難対象_大規模な火事,避難対象_内水氾濫,避難対象_火山現象,エレベーター有/避難スペースが１階,スロープ等,点字ブロック,だれでもトイレ,その他
北の丸公園,131016,東京都,千代田区,東京都千代田区北の丸公園１ほか,35.69198,139.750564,0,0,0,1,0,0,0,0,0,0,0,0,
皇居東御苑,131016,東京都,千代田区,東京都千代田区千代田１,35.686863,139.757162,0,0,0,1,0,0,0,0,0,0,0,0,
皇居外苑,131016,東京都,千代田区,東京都千代田区皇居外苑１ほか,35.680258,139.757693,0,0,0,1,0,0,0,0,0,0,0,0,
日比谷公園,131016,東京都,千代田区,東京都千代田区日比谷公園１,35.673576,139.755893,0,0,0,1,0,0,0,0,0,0,0,0,
真田堀運動場,131016,東京都,千代田区,東京都千代田区紀尾井町５ほか,35.68278,139.731059,0,0,0,1,0,0,0,0,0,0,0,0,
外濠公園,131016,東京都,千代田区,東京都千代田区五番町先,35.68864,139.73097,0,0,0,1,0,0,0,0,0,0,0,0,
京橋区民館,131024,東京都,中央区,東京都中央区京橋2-6-7,35.676558,139.771358,1,0,1,1,0,0,1,0,1,1,0,1,自動ドア
京橋プラザ,131024,東京都,中央区,東京都中央区銀座1-25-3,35.673233,139.771678,1,0,1,1,0,0,1,0,1,1,1,1,自動ドア
泰明小学校,131024,東京都,中央区,東京都中央区銀座5-1-13,35.672333,139.761326,1,0,1,1,0,0,1,0,0,0,0,0,
銀座中学校,131024,東京都,中央区,東京都中央区銀座8-19-15,35.665698,139.765034,1,0,1,1,0,0,1,0,0,1,0,1,
中央小学校,131024,東京都,中央区,東京都中央区湊1-4-1,35.672201,139.778753,1,0,1,1,0,0,1,0,1,1,1,1,オストメイト設備
明石小学校,131024,東京都,中央区,東京都中央区明石町1-15,35.668438,139.776409,1,0,1,1,0,0,1,0,1,1,1,1,オストメイト設備
京橋築地小学校,131024,東京都,中央区,東京都中央区築地2-13-1,35.667959,139.771414,1,0,1,1,0,0,1,0,0,1,0,1,
京華スクエア,131024,東京都,中央区,東京都中央区八丁堀3-17-9,35.674903,139.775664,1,0,1,1,0,0,1,0,1,1,1,1,自動ドア
明正小学校,131024,東京都,中央区,東京都中央区新川2-13-4,35.67597,139.781569,1,0,1,1,0,0,1,0,1,1,1,1,オストメイト設備
常盤小学校,131024,東京都,中央区,東京都中央区日本橋本石町4-4-26,35.688476,139.770558,1,0,1,1,0,0,1,0,0,1,0,0,
十思スクエア,131024,東京都,中央区,東京都中央区日本橋小伝馬町5-1,35.690646,139.777104,1,0,1,1,0,0,1,0,1,1,1,1,自動ドア
日本橋小学校,131024,東京都,中央区,東京都中央区日本橋人形町1-1-17,35.684677,139.78141,1,0,1,1,0,0,1,0,1,1,0,1,
有馬小学校,131024,東京都,中央区,東京都中央区日本橋蛎殻町2-10-23,35.683272,139.787993,1,0,1,1,0,0,1,0,1,1,0,1,
久松小学校,131024,東京都,中央区,東京都中央区日本橋久松町7-2,35.689029,139.784316,1,0,1,1,0,0,1,0,1,1,0,1,
日本橋中学校,131024,東京都,中央区,東京都中央区東日本橋1-10-1,35.692498,139.787096,1,0,1,1,0,0,1,0,0,0,0,0,
阪本小学校,131024,東京都,中央区,東京都中央区日本橋兜町15-18,35.679697,139.776766,1,0,1,1,0,0,1,0,1,1,1,1,
佃島小学校,131024,東京都,中央区,東京都中央区佃2-3-1,35.668626,139.78458,1,0,1,1,1,0,1,0,1,1,0,1,
佃中学校,131024,東京都,中央区,東京都中央区佃2-3-2,35.668054,139.785119,1,0,1,1,1,0,1,0,1,1,0,1,
月島第一小学校,131024,東京都,中央区,東京都中央区月島4-15-1,35.660632,139.780067,1,0,1,1,1,0,1,0,0,1,0,1,
月島第二小学校,131024,東京都,中央区,東京都中央区勝どき1-12-2,35.660249,139.775825,1,0,1,1,1,0,1,0,1,1,0,1,
月島第三小学校,131024,東京都,中央区,東京都中央区晴海1-4-1,35.658852,139.785539,1,0,1,1,0,0,1,0,1,1,0,1,
晴海中学校,131024,東京都,中央区,東京都中央区晴海1-5-3,35.659827,139.784584,1,0,1,1,0,0,1,0,1,1,0,1,
豊海小学校,131024,東京都,中央区,東京都中央区豊海3-1,35.653533,139.771473,1,0,1,1,1,0,1,0,1,1,1,1,
中央区役所,131024,東京都,中央区,東京都中央区築地1-1-1,35.670585,139.772006,1,0,1,0,0,0,1,0,1,1,1,1,自動ドア・授乳室・オストメイト設備
日本橋区民センター,131024,東京都,中央区,東京都中央区日本橋蛎殻町1-31-1,35.682472,139.784308,1,0,1,0,0,0,1,0,1,1,1,1,自動ドア・オストメイト設備・大型ベッド
月島区民センター,131024,東京都,中央区,東京都中央区月島4-1-1,35.662063,139.78215,1,0,1,0,1,0,1,0,1,1,1,1,自動ドア・授乳室
ほっとプラザはるみ,131024,東京都,中央区,東京都中央区晴海5-2-3,35.65205,139.774787,1,0,1,1,0,0,1,0,1,1,1,1,自動ドア・ベビーベッド
生涯学習センター,131032,東京都,港区,東京都港区新橋3-16-3,35.66556,139.757102,0,1,0,1,0,0,0,0,1,1,1,1,玄関自動ドア
障害保健福祉センター,131032,東京都,港区,東京都港区芝1-8-23,35.651643,139.755555,0,0,0,0,0,0,0,0,1,1,1,1,
芝小学校,131032,東京都,港区,東京都港区芝2-21-3,35.651302,139.75018,1,1,1,1,0,0,0,0,1,0,0,1,
三田図書館,131032,東京都,港区,東京都港区芝5-28-4,35.64714,139.745222,0,0,0,0,1,0,0,0,1,1,1,1,音声誘導器・筆談器
御成門中学校,131032,東京都,港区,東京都港区西新橋3-25-30,35.661632,139.750369,1,1,0,1,0,0,0,0,1,1,0,1,
神明子ども中高生プラザ・神明いきいきプラザ,131032,東京都,港区,東京都港区浜松町1-6-7,35.658765,139.757662,0,1,1,1,0,0,0,0,1,1,1,1,自動ドア・オストメイト設備・授乳室
エコプラザ,131032,東京都,港区,東京都港区浜松町1-13-1,35.658849,139.756888,0,1,0,1,0,0,0,0,1,1,1,1,自動ドア・ベビーベッド
御成門小学校,131032,東京都,港区,東京都港区芝公園3-2-4,35.660984,139.749519,1,1,1,1,0,0,0,0,1,1,0,1,
みなと図書館,131032,東京都,港区,東京都港区芝公園3-2-25,35.659896,139.750124,0,0,0,0,1,0,0,0,1,1,1,1,音声誘導器・筆談器
三田中学校,131032,東京都,港区,東京都港区三田4-13-15,35.645227,139.740847,1,1,1,1,0,0,0,0,1,1,1,1,オストメイト設備
スポーツセンター,131032,東京都,港区,東京都港区芝浦1-16-1,35.646636,139.751789,0,1,0,1,0,0,0,0,1,1,1,1,自動ドア・授乳室・こども用トイレ
芝浦小学校,131032,東京都,港区,東京都港区芝浦4-8-18,35.638159,139.746311,1,1,1,1,0,0,0,0,1,1,1,1,オストメイト設備
芝浦アイランド児童高齢者交流プラザ,131032,東京都,港区,東京都港区芝浦4-20-1,35.640373,139.752419,0,0,0,0,0,0,0,0,1,1,1,1,昇降機・スローダン
みなとリサイクル清掃事務所,131032,東京都,港区,東京都港区港南3-9-59,35.634389,139.751393,0,0,0,0,1,0,0,0,1,1,1,1,
港南中学校,131032,東京都,港区,東京都港区港南4-3-3,35.631196,139.749112,1,1,0,1,0,0,0,0,1,1,0,1,
港南こども中高生プラザ(プラリバ）,131032,東京都,港区,東京都港区港南4-3-7,35.631148,139.749908,0,1,1,1,0,0,0,0,1,1,1,1,車椅子対応エレベーター・車椅子対応トイレ・自動ドア・オスメイト対応トイレ・ベビーベッド・ベビーチェア対応トイレ・大人用大型ベッド対応トイレ
港南図書館,131032,東京都,港区,東京都港区港南3-3-17,35.632963,139.749559,0,0,0,0,1,0,0,0,1,1,1,1,音声誘導器・筆談器
港南の郷,131032,東京都,港区,東京都港区港南3-3-23,35.633288,139.749211,0,0,0,0,1,0,0,0,1,1,1,1,
港南小学校,131032,東京都,港区,東京都港区港南4-3-28,35.62923,139.749645,1,1,0,1,0,0,0,0,1,1,1,1,オストメイト設備
お台場学園小・中学校,131032,東京都,港区,東京都港区台場1-1-5,35.633646,139.777123,1,1,1,1,0,0,0,0,1,1,1,1,
台場児童館,131032,東京都,港区,東京都港区台場1-5-1,35.630066,139.777042,0,0,0,0,0,0,0,0,0,1,0,1,
福祉プラザさくら川,131032,東京都,港区,東京都港区新橋6-19-2,35.661188,139.753786,0,1,0,1,0,0,0,0,1,1,0,1,
虎ノ門いきいきプラザ,131032,東京都,港区,東京都港区虎ノ門1-21-10,35.667906,139.748713,1,1,1,1,0,0,0,0,1,1,1,1,自動ドア・オストメイト設備
三田いきいきプラザ,131032,東京都,港区,東京都港区芝4-1-17,35.648753,139.749744,1,1,1,1,0,0,0,0,1,1,1,1,自動ドア・オストメイト設備
港勤労福祉会館,131032,東京都,港区,東京都港区芝5-18-2,35.647874,139.748513,1,1,0,1,0,0,0,0,0,1,1,1,オストメイト設備（だれでもトイレ内）
赤羽小学校,131032,東京都,港区,東京都港区三田1-4-52,35.653232,139.742522,1,1,1,1,0,0,0,0,0,1,0,1,
麻布小学校,131032,東京都,港区,東京都港区麻布台1-5-15,35.661831,139.738714,1,1,1,1,0,0,0,0,0,0,0,1,
晴海地区,130001,東京都,,東京都中央区晴海,35.65328179,139.779028,0,0,0,0,0,1,0,0,0,0,0,0,
新川ツインビル地区,130001,東京都,,東京都中央区新川,35.67449725,139.7844365,0,0,0,0,0,1,0,0,0,0,0,0,
佃リバーシティ地区,130001,東京都,,東京都中央区佃,35.66937197,139.7849755,0,0,0,0,0,1,0,0,0,0,0,0,
あかつき公園一帯,130001,東京都,,東京都中央区築地、明石町,35.666349,139.776264,0,0,0,0,0,1,0,0,0,0,0,0,
麻布区民センター,131032,東京都,港区,東京都港区六本木5-16-45,35.660737,139.735053,0,1,1,1,0,0,0,0,1,0,1,1,オストメイト設備
六本木中学校,131032,東京都,港区,東京都港区六本木6-8-16,35.660829,139.732256,1,1,1,1,0,0,0,0,1,1,1,1,
旧飯倉小学校,131032,東京都,港区,東京都港区東麻布2-1-1,35.658164,139.742563,1,1,1,1,0,0,0,0,0,0,0,0,
飯倉いきいきプラザ,131032,東京都,港区,東京都港区東麻布2-16-11,35.656904,139.740889,0,1,1,1,0,0,0,0,1,1,1,1,オストメイト設備
南麻布いきいきプラザ,131032,東京都,港区,東京都港区南麻布1-5-26,35.651435,139.735101,0,1,1,1,0,0,0,0,1,0,1,1,オストメイト設備
東町小学校,131032,東京都,港区,東京都港区南麻布1-8-11,35.650872,139.735835,0,1,0,1,0,0,0,0,1,0,0,0,
ありすいきいきプラザ・麻布子ども中高生プラザ,131032,東京都,港区,東京都港区南麻布4-6-7,35.651038,139.72741,1,1,1,1,0,0,0,0,1,0,1,1,おむつ交換台・オストメイト設備
本村小学校,131032,東京都,港区,東京都港区南麻布3-9-33,35.649818,139.72996,1,1,1,1,0,0,0,0,1,1,0,1,
笄小学校,131032,東京都,港区,東京都港区西麻布3-11-16,35.656504,139.724918,1,1,1,1,0,0,0,0,0,0,0,0,
高陵中学校,131032,東京都,港区,東京都港区西麻布4-14-8,35.656898,139.720394,1,1,1,1,0,0,0,0,1,1,1,1,オストメイト設備
南山小学校,131032,東京都,港区,東京都港区元麻布3-8-15,35.657257,139.731123,1,1,1,1,0,0,0,0,0,0,0,1,
赤坂区民センター,131032,東京都,港区,東京都港区赤坂4-18-13,35.674749,139.731634,1,1,1,1,0,0,0,0,1,0,0,1,オスメイト設備
サン・サン赤坂,131032,東京都,港区,東京都港区赤坂6-6-14,35.66976,139.737544,0,1,1,1,0,0,0,0,0,0,0,0,
青山中学校,131032,東京都,港区,東京都港区北青山1-1-9,35.674193,139.722154,1,1,1,1,0,0,0,0,0,0,0,1,
青山いきいきプラザ,131032,東京都,港区,東京都港区南青山2-16-5,35.669213,139.721211,1,1,1,1,0,0,0,0,1,1,1,1,自動ドア・オストメイト設備・点字標示板
青山小学校,131032,東京都,港区,東京都港区南青山2-21-2,35.669872,139.719059,0,1,1,1,0,0,0,0,0,0,0,1,
青南いきいきプラザ,131032,東京都,港区,東京都港区南青山4-10-1,35.666466,139.717313,1,1,1,1,0,0,0,0,1,1,1,1,自動ドア・オストメイト設備
青南小学校,131032,東京都,港区,東京都港区南青山4-21-15,35.663505,139.716144,1,1,1,1,0,0,0,0,0,0,0,0,
豊岡いきいきプラザ,131032,東京都,港区,東京都港区三田5-7-7,35.646502,139.739662,0,1,1,1,0,0,0,0,1,0,0,1,オストメイト設備・オムツ替えシート
高輪区民センター,131032,東京都,港区,東京都港区高輪1-16-25,35.64195,139.734104,0,1,1,1,0,0,0,0,1,1,1,1,
高輪子ども中高生プラザ,131032,東京都,港区,東京都港区高輪1-4-35,35.642419,139.734826,1,1,1,1,0,0,0,0,1,0,1,1,自動ドア
高輪台小学校,131032,東京都,港区,東京都港区高輪2-8-24,35.636238,139.734348,1,1,1,1,0,0,0,0,1,1,1,1,オストメイト設備
高輪いきいきプラザ,131032,東京都,港区,東京都港区高輪3-18-15,35.633251,139.735583,0,1,1,1,0,0,0,0,1,1,1,1,オストメイト設備・オムツ替えシート
白金いきいきプラザ,131032,東京都,港区,東京都港区白金3-10-12,35.644894,139.731074,0,1,1,1,0,0,0,0,1,1,1,1,オムツ替えシート
旧三光小学校,131032,東京都,港区,東京都港区白金3-18-2,35.644269,139.729135,1,1,1,1,0,0,0,0,1,1,0,1,
旧神応小学校,131032,東京都,港区,東京都港区白金6-9-5,35.643634,139.724507,1,1,1,1,0,0,0,0,1,0,0,0,
白金小学校,131032,東京都,港区,東京都港区白金台1-4-26,35.636812,139.72856,0,1,1,1,0,0,0,0,0,0,0,0,
白金台いきいきプラザ,131032,東京都,港区,東京都港区白金台4-8-5,35.637614,139.725057,1,1,1,1,0,0,0,0,1,0,1,1,オストメイト設備・オムツ替えシート
芝浦港南区民センター,131032,東京都,港区,東京都港区芝浦4-13-1,35.640524,139.74866,1,1,1,1,0,0,0,0,1,0,1,1,自動ドア・授乳室
港南いきいきプラザ,131032,東京都,港区,東京都港区港南4-2-1,35.629715,139.747075,0,1,0,1,0,0,0,0,1,1,1,1,オストメイト設備
台場区民センター,131032,東京都,港区,東京都港区台場1-5-1,35.629796,139.777012,1,1,1,1,0,0,0,0,1,0,1,1,自動ドア・授乳室
西麻布いきいきプラザ,131032,東京都,港区,東京都港区西麻布2-13-3,35.660855,139.722721,0,1,1,1,0,0,0,0,1,0,1,1,おむつ交換台・オストメイト設備
赤坂小学校,131032,東京都,港区,東京都港区赤坂8-13-29,35.669308,139.731031,0,1,1,1,0,0,0,0,1,1,0,1,
赤坂中学校,131032,東京都,港区,東京都港区赤坂9-2-3,35.668009,139.731015,0,0,0,1,0,0,0,0,1,1,1,1,
赤坂いきいきプラザ,131032,東京都,港区,東京都港区赤坂6-4-8,35.670358,139.734939,0,1,1,1,0,0,0,0,1,1,1,1,自動ドア・オストメイト設備・点字標示板
御田小学校,131032,東京都,港区,東京都港区三田4-11-38,35.643172,139.738034,1,1,1,1,0,0,0,0,0,0,0,0,
白金の丘学園白金の丘小・中学校,131032,東京都,港区,東京都港区白金4-1-12,35.643626,139.72684,1,1,1,1,0,0,0,0,1,1,1,1,オストメイト設備
高松中学校,131032,東京都,港区,東京都港区高輪1-16-25,35.640817,139.733771,0,0,1,1,0,0,0,0,1,1,0,1,
迎賓館一帯,130001,東京都,,東京都港区元赤坂、新宿区南元町、四谷、若葉,35.68023441,139.7287512,0,0,0,0,0,0,0,0,0,0,0,0,
芝公園・慶応大学一帯,130001,東京都,,東京都港区芝公園、三田,35.6573792,139.7472498,0,0,0,0,0,0,0,0,0,0,0,0,
高輪三丁目・四丁目・御殿山地区,130001,東京都,,東京都港区高輪、品川区北品川,35.63062116,139.7351626,0,0,0,0,0,0,0,0,0,0,0,0,
自然教育園・聖心女子学院一帯,130001,東京都,,東京都港区白金、白金台、品川区上大崎,35.63852886,139.7195746,0,0,0,0,0,0,0,0,0,0,0,0,
有栖川宮記念公園一帯,130001,東京都,,東京都港区南麻布,35.65167707,139.7265013,0,0,0,0,0,0,0,0,0,0,0,0,
青山墓地一帯,130001,東京都,,東京都港区南青山、六本木,35.66575902,139.7230347,0,0,0,0,0,0,0,0,0,0,0,0,
明治神宮外苑地区,130001,東京都,,東京都港区北青山、新宿区霞ヶ丘町、渋谷区神宮前、千駄ケ谷,35.67775338,139.7171293,0,0,0,0,0,0,0,0,0,0,0,0,
迎賓館一帯,130001,東京都,,東京都港区元赤坂、新宿区南元町、四谷、若葉,35.68023441,139.7287512,0,0,0,0,0,1,0,0,0,0,0,0,
戸山公園一帯,130001,東京都,,東京都新宿区大久保、戸山,35.70401633,139.7135665,0,0,0,0,0,1,0,0,0,0,0,0,
明治神宮外苑地区,130001,東京都,,東京都港区北青山、新宿区霞ヶ丘町、渋谷区神宮前、千駄ケ谷,35.67775338,139.7171293,0,0,0,0,0,1,0,0,0,0,0,0,
新宿御苑,130001,東京都,,東京都新宿区内藤町、渋谷区千駄ケ谷,35.68544234,139.7105405,0,0,0,0,0,1,0,0,0,0,0,0,
新宿中央公園・高層ビル群一帯,130001,東京都,,東京都新宿区西新宿,35.69119515,139.690472,0,0,0,0,0,1,0,0,0,0,0,0,
百人町三・四丁目地区,130001,東京都,,東京都新宿区百人町,35.7060489,139.6982317,0,0,0,0,0,1,0,0,0,0,0,0,
哲学堂公園一帯,130001,東京都,,東京都新宿区西落合、中井、中落合、東京都中野区上高田、松が丘,35.72263318,139.6743111,0,0,0,0,0,1,0,0,0,0,0,0,
早稲田大学早稲田キャンパス一帯,130001,東京都,,東京都新宿区戸塚町、西早稲田、早稲田鶴巻町,35.70963475,139.718687,0,0,0,0,0,1,0,0,0,0,0,0,
落合中央公園一帯,130001,東京都,,東京都新宿区上落合,35.71276959,139.69322,0,0,0,0,0,1,0,0,0,0,0,0,
おとめ山公園地区一帯,130001,東京都,,東京都新宿区下落合,35.718066,139.701488,0,0,0,0,0,1,0,0,0,0,0,0,
六義園,130001,東京都,,東京都文京区本駒込,35.73291125,139.746376,0,0,0,0,0,1,0,0,0,0,0,0,
東京大学,130001,東京都,,東京都文京区本郷、弥生,35.71165108,139.7618305,0,0,0,0,0,1,0,0,0,0,0,0,
後楽園一帯,130001,東京都,,東京都文京区春日、後楽,35.70584768,139.750585,0,0,0,0,0,1,0,0,0,0,0,0,
お茶の水女子大学一帯・教育の森公園一帯,130001,東京都,,東京都文京区大塚,35.71996115,139.7362569,0,0,0,0,0,1,0,0,0,0,0,0,
護国寺一帯,130001,東京都,,東京都文京区大塚,35.72199685,139.7262335,0,0,0,0,0,1,0,0,0,0,0,0,
小石川植物園,130001,東京都,,東京都文京区白山,35.71981799,139.744307,0,0,0,0,0,1,0,0,0,0,0,0,
目白台運動公園付近一帯,130001,東京都,,東京都文京区関口、目白台,35.71204229,139.725869,0,0,0,0,0,1,0,0,0,0,0,0,
谷中小学校,131067,東京都,台東区,東京都台東区谷中2-9-16,35.72387,139.765205,1,1,1,0,0,0,1,0,0,0,0,0,
忍岡小学校,131067,東京都,台東区,東京都台東区池之端2-1-22,35.714015,139.76692,1,1,1,0,0,0,1,0,0,0,0,0,
旧柳北小学校,131067,東京都,台東区,台東区浅草橋5-1-35,35.69954369,139.7825208,1,0,1,0,0,0,1,0,0,0,0,0,
松葉小学校,131067,東京都,台東区,東京都台東区松が谷1-13-16,35.7122307,139.786471,1,0,1,0,0,0,1,0,0,0,0,0,
東浅草小学校,131067,東京都,台東区,東京都台東区東浅草2-27-19,35.724439,139.798209,1,0,1,0,0,0,1,0,0,0,0,0,
柏葉中学校,131067,東京都,台東区,東京都台東区下谷3-1-29,35.723719,139.786217,1,0,1,0,0,0,1,0,0,0,0,0,
上野小学校,131067,東京都,台東区,東京都台東区東上野6-16-8,35.713586,139.783622,1,0,1,0,0,0,1,0,0,0,0,0,
田原小学校,131067,東京都,台東区,東京都台東区雷門1-5-14,35.709988,139.792782,1,0,1,0,0,0,1,0,0,0,0,0,
浅草小学校,131067,東京都,台東区,東京都台東区花川戸1-14-15,35.713529,139.799192,1,0,1,0,0,0,1,0,0,0,0,0,
千束小学校,131067,東京都,台東区,東京都台東区浅草4-24-11,35.719207,139.793993,1,0,1,0,0,0,1,0,0,0,0,0,
石浜小学校,131067,東京都,台東区,東京都台東区清川1-14-21,35.724929,139.80342,1,0,1,0,0,0,1,0,0,0,0,0,
東泉小学校,131067,東京都,台東区,東京都台東区三ノ輪1-23-9,35.7284975,139.792191,1,0,1,0,0,0,1,0,0,0,0,0,
浅草中学校,131067,東京都,台東区,東京都台東区蔵前1-3-4,35.699968,139.789963,1,0,1,0,0,0,1,0,0,0,0,0,
御徒町台東中学校,131067,東京都,台東区,東京都台東区台東4-13-16,35.70699,139.77744,1,0,1,0,0,0,1,0,0,0,0,0,
上野中学校,131067,東京都,台東区,東京都台東区上野桜木1-14-55,35.721164,139.774722,1,0,1,0,0,0,1,0,0,0,0,0,
蔵前小学校,131067,東京都,台東区,台東区蔵前4-19-11,35.70439432,139.7892641,1,0,1,0,0,0,1,0,0,0,0,0,
駒形中学校,131067,東京都,台東区,東京都台東区北上野2-15-1,35.717453,139.7842384,1,0,1,0,0,0,1,0,0,0,0,0,
谷中墓地,130001,東京都,,東京都台東区谷中、上野桜木,35.72402464,139.7716658,1,0,0,0,0,1,0,0,0,0,0,0,
上野公園一帯,130001,東京都,,東京都台東区上野公園、上野桜木、池之端,35.71356583,139.7722521,1,0,0,0,0,1,0,0,0,0,0,0,
隅田公園一帯,130001,東京都,,東京都台東区浅草、今戸、花川戸,35.71365034,139.8013117,0,0,0,0,0,1,0,0,0,0,0,0,
白鬚東地区,130001,東京都,,東京都墨田区堤通,35.73293494,139.8144505,0,0,0,0,0,1,0,0,0,0,0,0,
都営文花一丁目住宅一帯,130001,東京都,,東京都墨田区文花,35.70873718,139.8222338,0,0,0,0,0,1,0,0,0,0,0,0,
両国地区,130001,東京都,,東京都墨田区横網,35.69782953,139.7940685,0,0,0,0,0,1,0,0,0,0,0,0,
荒川・四ツ木橋緑地,130001,東京都,,東京都墨田区墨田、東墨田、八広,35.72908949,139.8295707,0,0,0,0,0,1,0,0,0,0,0,0,
墨田区役所・隅田公園自由広場一帯,130001,東京都,,東京都墨田区吾妻橋、向島,35.71440286,139.805418,0,0,0,0,0,1,0,0,0,0,0,0,
錦糸公園,130001,東京都,,東京都墨田区錦糸,35.69902324,139.8164268,0,0,0,0,0,1,0,0,0,0,0,0,
立花一丁目団地一帯,130001,東京都,,東京都墨田区立花,35.70524898,139.8302783,0,0,0,0,0,1,0,0,0,0,0,0,
大島・北砂団地一帯,130001,東京都,,東京都江東区大島、北砂,35.68653742,139.8298684,0,0,0,0,0,1,0,0,0,0,0,0,
公社南砂二丁目団地一帯,130001,東京都,,東京都江東区南砂,35.67193467,139.8231518,0,0,0,0,0,1,0,0,0,0,0,0,
辰巳団地・潮見運動公園一帯,130001,東京都,,東京都江東区潮見、辰巳,35.6483751,139.8123512,0,0,0,0,0,1,0,0,0,0,0,0,
猿江恩賜公園一帯,130001,東京都,,東京都江東区猿江、住吉、毛利,35.68937329,139.8183985,0,0,0,0,0,1,0,0,0,0,0,0,
亀戸・大島・小松川地区,130001,東京都,,東京都江東区大島、東京都江戸川区小松川、平井,35.689844,139.849468,0,0,0,0,0,1,0,0,0,0,0,0,
清澄庭園,130001,東京都,,東京都江東区清澄,35.67924103,139.7965705,0,0,0,0,0,1,0,0,0,0,0,0,
東京海洋大学一帯,130001,東京都,,東京都江東区越中島,35.66973148,139.7901338,0,0,0,0,0,1,0,0,0,0,0,0,
亀戸中央公園,130001,東京都,,東京都江東区亀戸,35.70080816,139.836783,0,0,0,0,0,1,0,0,0,0,0,0,
都営東砂二丁目住宅一帯,130001,東京都,,東京都江東区東砂,35.68477755,139.8432495,0,0,0,0,0,1,0,0,0,0,0,0,
木場公園一帯,130001,東京都,,東京都江東区木場、千石、東陽、平野、三好,35.67298936,139.8081887,0,0,0,0,0,1,0,0,0,0,0,0,
亀戸二丁目団地一帯,130001,東京都,,東京都江東区亀戸,35.70012865,139.82121,0,0,0,0,0,1,0,0,0,0,0,0,
南砂三丁目公園一帯,130001,東京都,,東京都江東区南砂,35.669926,139.832711,0,0,0,0,0,1,0,0,0,0,0,0,
日野学園,131091,東京都,品川区,東京都品川区東五反田2-11-1,35.624555,139.728325,0,0,0,0,1,0,0,0,1,1,0,1,
品川学園,131091,東京都,品川区,東京都品川区北品川3-9-30,35.61771,139.738086,0,1,0,0,1,0,0,0,1,1,1,1,
城南小学校,131091,東京都,品川区,東京都品川区南品川2-8-21,35.613329,139.742746,0,0,0,0,1,0,0,0,1,1,1,1,
城南第二小学校,131091,東京都,品川区,東京都品川区東品川3-4-5,35.61543,139.746151,0,0,0,0,1,0,0,0,0,1,0,0,
鮫浜小学校,131091,東京都,品川区,東京都品川区東大井2-10-14,35.601716,139.740669,0,0,0,0,1,0,0,0,0,1,0,1,
浜川小学校,131091,東京都,品川区,東京都品川区南大井4-3-27,35.59828,139.736203,0,0,1,0,1,0,0,0,0,1,0,0,
鈴ヶ森小学校,131091,東京都,品川区,東京都品川区南大井4-16-2,35.594478,139.735242,0,0,0,0,1,0,0,0,0,1,0,0,
台場小学校,131091,東京都,品川区,東京都品川区東品川1-8-30,35.620874,139.743779,0,0,0,0,1,0,0,0,1,1,1,1,
東海中学校,131091,東京都,品川区,東京都品川区東品川3-30-15,35.612621,139.748971,0,0,0,0,1,0,0,0,0,1,0,0,
浜川中学校,131091,東京都,品川区,東京都品川区東大井3-18-34,35.6002,139.737944,0,0,0,0,1,0,0,0,0,0,0,0,
鈴ヶ森中学校,131091,東京都,品川区,東京都品川区南大井2-3-14,35.592644,139.737731,0,0,0,0,1,0,0,0,0,1,0,0,
品川図書館,131091,東京都,品川区,東京都品川区北品川2-32-3,35.616935,139.742572,0,0,0,0,1,0,0,0,1,1,1,1,自動ドア・授乳室・オストメイト設備・ベビーベッド
東品川文化センター,131091,東京都,品川区,東京都品川区東品川3-32-10,35.612893,139.750593,0,0,0,0,1,0,0,0,0,0,0,0,
南大井文化センター,131091,東京都,品川区,東京都品川区南大井1-12-6,35.596293,139.737546,0,0,0,0,1,0,0,0,1,0,1,1,オストメイト設備・折りたたみシート（ベッド）
東品川児童センター,131091,東京都,品川区,東京都品川区東品川1-34-9,35.619128,139.74604,0,0,0,0,1,0,0,0,0,0,0,0,
北品川児童センター,131091,東京都,品川区,東京都品川区北品川2-7-21,35.618822,139.743962,0,0,0,0,1,0,0,0,0,0,0,0,
品川健康センター,131091,東京都,品川区,東京都品川区北品川3-11-22,35.616587,139.740732,0,0,0,0,1,0,0,0,0,0,0,0,
東品川職員待機寮,131091,東京都,品川区,東京都品川区東品川3-1-5,35.617173,139.747379,0,0,0,0,1,0,0,0,0,0,0,0,
北品川職員待機寮,131091,東京都,品川区,東京都品川区北品川3-11-17,35.616129,139.74006,0,0,0,0,1,0,0,0,0,0,0,0,
東大井職員待機寮,131091,東京都,品川区,東京都品川区東大井2-16-12,35.600547,139.741536,0,0,0,0,1,0,0,0,0,0,0,0,
南大井一丁目区営住宅,131091,東京都,品川区,東京都品川区南大井1-13-7,35.595309,139.737111,0,0,0,0,1,0,0,0,1,1,0,0,
南大井五丁目区営住宅,131091,東京都,品川区,東京都品川区南大井5-7-10,35.598028,139.734161,0,0,0,0,1,0,0,0,1,1,0,0,
南大井六丁目区営住宅,131091,東京都,品川区,東京都品川区南大井6-1-20,35.593164,139.731479,0,0,0,0,1,0,0,0,1,1,0,0,
東大井三丁目区営住宅,131091,東京都,品川区,東京都品川区東大井3-6-18.19,35.602861,139.739397,0,0,0,0,1,0,0,0,1,0,0,0,
第三日野小学校,131091,東京都,品川区,東京都品川区上大崎1-19-19,35.632801,139.723819,1,1,0,0,0,0,0,0,1,1,0,1,
御殿山小学校,131091,東京都,品川区,東京都品川区北品川5-2-6,35.623258,139.732299,1,1,0,0,0,0,0,0,1,1,1,1,
芳水小学校,131091,東京都,品川区,東京都品川区大崎3-12-22,35.619203,139.724769,1,0,0,0,0,0,0,0,1,1,1,1,
第四日野小学校,131091,東京都,品川区,東京都品川区西五反田4-29-9,35.62563,139.712364,1,0,0,0,0,0,0,0,0,0,0,0,
第一日野小学校,131091,東京都,品川区,東京都品川区西五反田6-5-32,35.622169,139.716098,1,0,0,0,0,0,0,0,1,1,0,1,
新南大井ビル,131091,東京都,品川区,東京都品川区南大井1-13-4,35.59497,139.736901,0,0,0,0,1,0,0,0,0,0,0,0,
第一ホテル東京シーフォート,131091,東京都,品川区,東京都品川区東品川2-3-14,35.624369,139.751303,0,0,0,0,1,0,0,0,1,0,0,0,
リバーサイドマンションＡ棟・Ｂ棟,131091,東京都,品川区,東京都品川区東大井2-17-14,35.599644,139.741182,0,0,0,0,1,0,0,0,0,0,0,0,
第三東個マンション,131091,東京都,品川区,東京都品川区南大井1-17-6,35.593997,139.738824,0,0,0,0,1,0,0,0,0,0,0,0,
東大井スカイハイツ,131091,東京都,品川区,東京都品川区東大井2-13-10,35.600893,139.739686,0,0,0,0,1,0,0,0,0,0,0,0,
ステーションプラザ立会川,131091,東京都,品川区,東京都品川区東大井2-23-4,35.598559,139.738554,0,0,0,0,1,0,0,0,0,0,0,0,
サンライフ東品川,131091,東京都,品川区,東京都品川区東品川1-28-11,35.620005,139.744965,0,0,0,0,1,0,0,0,0,0,0,0,
ニックハイム北品川,131091,東京都,品川区,東京都品川区北品川1-22-17,35.622083,139.74056,0,0,0,0,1,0,0,0,0,0,0,0,
㈱コナミスポーツ＆ライフ,131091,東京都,品川区,東京都品川区東品川4-10-1,35.607945,139.74587,0,0,0,0,1,0,0,0,1,0,0,0,
來福寺,131091,東京都,品川区,東京都品川区東大井3-13-1,35.601805,139.737672,0,0,0,0,1,0,0,0,0,0,0,0,
アイルサイドテラス,131091,東京都,品川区,東京都品川区東品川1-32-3,35.620055,139.746163,0,0,0,0,1,0,0,0,0,0,0,0,
六行会総合ビル,131091,東京都,品川区,東京都品川区北品川2-32-3,35.617049,139.742795,0,0,0,0,1,0,0,0,1,0,0,0,
前田道路㈱品川営業所,131091,東京都,品川区,東京都品川区勝島1-3-20,35.598331,139.744164,0,0,0,0,1,0,0,0,0,0,0,0,
立会小学校,131091,東京都,品川区,東京都品川区東大井4-15-9,35.604478,139.739689,0,0,1,0,0,0,0,0,0,1,0,1,
上大崎シルバーセンター,130001,東京都,区市町村,東京都品川区上大崎,35.6346,139.72205,0,1,0,0,0,0,0,0,1,1,1,1,
高輪三丁目・四丁目・御殿山地区,130001,東京都,,東京都港区高輪、品川区北品川,35.63062116,139.7351626,0,0,0,0,0,1,0,0,0,0,0,0,
自然教育園・聖心女子学院一帯,130001,東京都,,東京都港区白金、白金台、品川区上大崎,35.63852886,139.7195746,0,0,0,0,0,1,0,0,0,0,0,0,
ＪＲアパート・品川区役所一帯,130001,東京都,,東京都品川区広町,35.60869655,139.7323917,0,0,0,0,0,1,0,0,0,0,0,0,
大井ふ頭一帯,130001,東京都,,東京都品川区八潮、大田区城南島、東海,35.58100789,139.778422,0,0,0,0,0,1,0,0,0,0,0,0,
大井競馬場・しながわ区民公園,130001,東京都,,東京都品川区勝島,35.59263232,139.7418696,0,0,0,0,0,1,0,0,0,0,0,0,
林試の森公園,130001,東京都,,東京都品川区小山台、目黒区下目黒,35.62532686,139.7017717,0,0,0,0,0,1,0,0,0,0,0,0,
戸越公園一帯,130001,東京都,,東京都品川区豊町,35.61067389,139.7214598,0,0,0,0,0,1,0,0,0,0,0,0,
天王洲アイル周辺,130001,東京都,,東京都品川区東品川,35.61600299,139.7492663,0,0,0,0,0,1,0,0,0,0,0,0,
大崎駅西口地区一帯,130001,東京都,,東京都品川区大崎,35.617599,139.728031,0,0,0,0,0,1,0,0,0,0,0,0,
都立国際高等学校,131105,東京都,目黒区,東京都目黒区駒場2-19-59,35.659294,139.678892,0,0,0,1,0,0,0,0,1,1,0,1,
駒場小学校,131105,東京都,目黒区,東京都目黒区駒場3-11-13,35.659817,139.682075,1,1,0,1,0,0,1,0,0,0,0,1,手摺
第一中学校,131105,東京都,目黒区,東京都目黒区大橋2-11-1,35.654632,139.686429,1,1,0,1,0,0,1,0,0,1,0,0,
都立駒場高等学校,131105,東京都,目黒区,東京都目黒区大橋2-18-1,35.654988,139.685451,0,0,0,1,0,0,0,0,1,1,0,1,自動ドア
菅刈小学校,131105,東京都,目黒区,東京都目黒区青葉台3-3-26,35.651507,139.692404,1,0,0,1,0,0,1,0,0,1,0,1,手摺
菅刈公園,131105,東京都,目黒区,東京都目黒区青葉台2-11-25,35.650312,139.693105,0,0,0,1,0,0,0,0,0,1,0,1,手摺
東山中学校,131105,東京都,目黒区,東京都目黒区東山1-24-31,35.646476,139.690227,1,1,0,1,0,0,1,0,0,1,0,1,手摺
東山小学校,131105,東京都,目黒区,東京都目黒区東山2-24-25,35.64692,139.685758,1,1,0,1,0,0,1,0,1,1,1,1,手摺
烏森小学校,131105,東京都,目黒区,東京都目黒区上目黒3-37-27,35.644365,139.692883,1,1,0,1,0,0,1,0,0,1,0,1,手摺
めぐろ学校サポートセンター,131105,東京都,目黒区,東京都目黒区中目黒3-6-10,35.639305,139.702768,1,1,0,1,0,0,1,0,1,1,1,1,自動ドア・手摺
中目黒小学校,131105,東京都,目黒区,東京都目黒区中目黒3-13-32,35.640072,139.698828,1,1,0,1,0,0,1,0,0,1,0,1,手摺
田道小学校,131105,東京都,目黒区,東京都目黒区目黒1-15-28,35.637594,139.709168,0,1,0,1,0,0,0,0,0,1,0,1,
下目黒小学校,131105,東京都,目黒区,東京都目黒区目黒2-7-9,35.63426,139.709213,0,1,0,1,0,0,0,0,0,1,0,1,手摺
大鳥中学校,131105,東京都,目黒区,東京都目黒区下目黒3-23-18,35.630796,139.707607,1,1,0,1,0,0,1,0,0,1,0,1,
不動小学校,131105,東京都,目黒区,東京都目黒区下目黒6-11-35,35.627081,139.699099,1,1,0,1,0,0,1,0,0,1,0,1,手摺
上目黒小学校,131105,東京都,目黒区,東京都目黒区五本木1-12-13,35.638735,139.690425,1,1,0,1,0,0,1,0,0,1,0,0,手摺
都立目黒高等学校,131105,東京都,目黒区,東京都目黒区祐天寺2-7-15,35.637093,139.69453,0,0,0,1,0,0,0,0,1,1,0,1,自動ドア
油面小学校,131105,東京都,目黒区,東京都目黒区中町1-5-4,35.632429,139.698664,1,1,0,1,0,0,1,0,1,1,0,1,手摺
目黒中央中学校,131105,東京都,目黒区,東京都目黒区中町2-37-38,35.634695,139.693894,1,1,0,1,0,0,1,0,1,1,0,1,手摺
五本木小学校,131105,東京都,目黒区,東京都目黒区五本木2-24-3,35.634187,139.687943,1,1,0,1,0,0,1,0,1,1,1,1,自動ドア・手摺
鷹番小学校,131105,東京都,目黒区,東京都目黒区中央町1-20-26,35.627744,139.689976,1,1,0,1,0,0,1,0,0,1,0,1,
碑文谷公園及び碑文谷体育館,131105,東京都,目黒区,東京都目黒区碑文谷6-9-11、6-12-43,35.62655,139.682084,1,1,0,1,0,0,1,0,1,0,0,1,自動ドア・手摺
月光原小学校,131105,東京都,目黒区,東京都目黒区目黒本町4-15-3,35.623015,139.694919,1,1,0,1,0,0,1,0,0,1,0,0,手摺
向原小学校,131105,東京都,目黒区,東京都目黒区目黒本町6-7-15,35.618716,139.695783,0,1,0,1,0,0,0,0,0,1,0,0,手摺
第七中学校,131105,東京都,目黒区,東京都目黒区碑文谷1-1-33,35.622923,139.691764,1,1,0,1,0,0,1,0,0,1,0,1,手摺
碑小学校,131105,東京都,目黒区,東京都目黒区碑文谷1-18-2,35.619615,139.690589,1,1,0,1,0,0,1,0,1,1,1,1,自動ドア・手摺
原町小学校,131105,東京都,目黒区,東京都目黒区原町2-18-12,35.615525,139.690664,1,1,0,1,0,0,1,0,0,0,0,0,手摺
第九中学校,131105,東京都,目黒区,東京都目黒区洗足1-29-26,35.61356,139.694883,1,1,0,1,0,0,1,0,0,0,0,0,手摺
第八中学校,131105,東京都,目黒区,東京都目黒区碑文谷4-19-25,35.619685,139.682495,1,1,0,1,0,0,1,0,0,1,0,0,手摺
大岡山小学校,131105,東京都,目黒区,東京都目黒区平町2-3-1,35.615482,139.683004,1,1,0,1,0,0,1,0,0,1,0,1,手摺
中根小学校,131105,東京都,目黒区,東京都目黒区緑が丘1-1-1,35.612637,139.678543,1,1,0,1,0,0,1,0,1,1,1,1,自動ドア・手摺
第十一中学校,131105,東京都,目黒区,東京都目黒区緑が丘1-8-1,35.609469,139.679024,1,1,0,1,0,0,1,0,0,0,0,0,手摺
緑ヶ丘小学校,131105,東京都,目黒区,東京都目黒区緑が丘2-13-1,35.610299,139.673449,1,1,0,1,0,0,1,0,1,1,0,1,自動ドア・手摺
宮前小学校,131105,東京都,目黒区,東京都目黒区八雲3-13-21,35.615365,139.66688,1,1,0,1,0,0,1,0,0,1,0,0,手摺
めぐろ区民キャンパス,131105,東京都,目黒区,東京都目黒区八雲1-1-1,35.62105,139.673578,1,1,0,1,0,0,1,0,1,1,1,1,自動ドア・手摺
都立桜修館中等教育学校,131105,東京都,目黒区,東京都目黒区八雲1-1-2,35.621189,139.67096,0,0,0,1,0,0,0,0,1,1,1,1,自動ドア・手摺
八雲小学校,131105,東京都,目黒区,東京都目黒区八雲2-5-1,35.618062,139.671255,1,1,0,1,0,0,1,0,0,1,0,1,手摺
第十中学校,131105,東京都,目黒区,東京都目黒区八雲5-2-1,35.62432,139.668677,1,1,0,1,0,0,1,0,0,0,0,1,手摺
東根小学校,131105,東京都,目黒区,東京都目黒区東が丘1-20-1,35.627158,139.668027,1,1,0,1,0,0,1,0,0,1,0,1,
自由ヶ丘学園高等学校,131105,東京都,目黒区,東京都目黒区自由が丘2-21-1,35.612244,139.666511,0,0,0,1,0,0,0,0,1,0,0,0,
駒場東大一帯,130001,東京都,,東京都目黒区駒場、世田谷区北沢、渋谷区松濤、富ヶ谷,35.66112333,139.6827728,0,0,0,0,0,1,0,0,0,0,0,0,
中目黒公園一帯,130001,東京都,,東京都目黒区中目黒、渋谷区恵比寿南,35.6408722,139.7049268,0,0,0,0,0,1,0,0,0,0,0,0,
世田谷公園一帯,130001,東京都,,東京都目黒区東山、世田谷区池尻,35.6434823,139.6823346,0,0,0,0,0,1,0,0,0,0,0,0,
東京工業大学,130001,東京都,,東京都目黒区大岡山、緑ヶ丘、大田区石川町、北千束,35.60589354,139.6828601,0,0,0,0,0,1,0,0,0,0,0,0,
駒沢オリンピック公園一帯,130001,東京都,,東京都目黒区東が丘、八雲、世田谷区駒沢、駒沢公園、深沢,35.62550776,139.6613951,0,0,0,0,0,1,0,0,0,0,0,0,
林試の森公園,130001,東京都,,東京都品川区小山台、目黒区下目黒,35.62532686,139.7017717,0,0,0,0,0,1,0,0,0,0,0,0,
恵比寿ガーデンプレイス,130001,東京都,,東京都目黒区三田、渋谷区恵比寿,35.64202332,139.7142619,0,0,0,0,0,1,0,0,0,0,0,0,
駒場地区,130001,東京都,,東京都目黒区駒場、大橋、世田谷区池尻,35.656225,139.688141,0,0,0,0,0,1,0,0,0,0,0,0,
大井ふ頭一帯,130001,東京都,,東京都品川区八潮、大田区城南島、東海,35.58100789,139.778422,0,0,0,0,0,1,0,0,0,0,0,0,
東京工業大学,130001,東京都,,東京都目黒区大岡山、緑ヶ丘、大田区石川町、北千束,35.60589354,139.6828601,0,0,0,0,0,1,0,0,0,0,0,0,
平和島地区,130001,東京都,,東京都大田区大森東、平和島、平和の森公園,35.58220189,139.7460597,0,0,0,0,0,1,0,0,0,0,0,0,
昭和島野球場一帯,130001,東京都,,東京都大田区昭和島,35.57078621,139.747504,0,0,0,0,0,1,0,0,0,0,0,0,
森ヶ崎公園,130001,東京都,,東京都大田区大森南,35.56361936,139.7503188,0,0,0,0,0,1,0,0,0,0,0,0,
東京国際空港天空橋周辺,130001,東京都,,東京都大田区羽田空港,35.54954499,139.7569397,0,0,0,0,0,1,0,0,0,0,0,0,
萩中公園,130001,東京都,,東京都大田区萩中、本羽田,35.54995429,139.7378386,0,0,0,0,0,1,0,0,0,0,0,0,
旧蒲田電車区周辺一帯,130001,東京都,,東京都大田区蒲田本町、新蒲田、西六郷、仲六郷,35.558007,139.712856,0,0,0,0,0,1,0,0,0,0,0,0,
池上本門寺一帯,130001,東京都,,東京都大田区池上,35.57637533,139.706625,0,0,0,0,0,1,0,0,0,0,0,0,
多摩川河川敷・ガス橋一帯,130001,東京都,,東京都大田区鵜の木、下丸子、多摩川、田園調布本町、田園調布南、矢口,35.5748448,139.674528,0,0,0,0,0,1,0,0,0,0,0,0,
多摩川河川敷・田園調布先一帯,130001,東京都,,東京都大田区田園調布、世田谷区上野毛、玉堤、野毛,35.60532543,139.6346766,0,0,0,0,0,1,0,0,0,0,0,0,
洗足池公園一帯,130001,東京都,,東京都大田区南千束,35.602287,139.691647,0,0,0,0,0,1,0,0,0,0,0,0,
明正小学校,131121,東京都,世田谷区,東京都世田谷区成城3-3-1,35.635356,139.599266,1,0,0,0,0,0,0,0,1,1,0,1,
砧小学校,131121,東京都,世田谷区,東京都世田谷区喜多見6-9-1,35.631746,139.60543,1,0,0,0,0,0,0,0,0,0,0,1,
砧中学校,131121,東京都,世田谷区,東京都世田谷区成城1-10-1,35.633632,139.601264,1,0,0,0,0,0,0,0,0,0,0,1,
瀬田小学校,131121,東京都,世田谷区,東京都世田谷区瀬田2-15-1,35.618509,139.6319,1,1,0,0,0,0,0,0,0,0,0,1,
瀬田中学校,131121,東京都,世田谷区,東京都世田谷区瀬田2-17-1,35.61837,139.633414,1,1,0,0,0,0,0,0,0,0,0,0,
中町小学校,131121,東京都,世田谷区,東京都世田谷区中町4-23-1,35.617326,139.642777,1,0,0,0,0,0,0,0,1,1,0,0,
玉川小学校,131121,東京都,世田谷区,東京都世田谷区中町2-29-1,35.610855,139.643411,1,1,0,0,0,0,0,0,0,0,0,0,
玉川中学校,131121,東京都,世田谷区,東京都世田谷区中町4-21-1,35.616765,139.643499,1,0,0,0,0,0,0,0,1,1,0,1,オストメイト設備
尾山台小学校,131121,東京都,世田谷区,東京都世田谷区尾山台3-11-1,35.604599,139.654257,1,1,0,0,0,0,0,0,0,0,0,1,
尾山台中学校,131121,東京都,世田谷区,東京都世田谷区尾山台3-27-23,35.605897,139.655953,1,0,0,0,0,0,0,0,0,0,0,0,
八幡小学校,131121,東京都,世田谷区,東京都世田谷区玉川田園調布2-17-15,35.602783,139.666897,1,0,0,0,0,0,0,0,0,0,0,0,
九品仏小学校,131121,東京都,世田谷区,東京都世田谷区奥沢8-12-1,35.603266,139.660056,1,0,0,0,0,0,0,0,0,0,0,1,
区立総合運動場体育館,131121,東京都,世田谷区,東京都世田谷区大蔵4-6-1,35.630429,139.612363,1,0,0,0,0,0,0,0,1,0,1,0,車いす用トイレ
聖ドミニコ学園,131121,東京都,世田谷区,東京都世田谷区岡本1-10-1,35.62457,139.620498,1,0,0,0,0,0,0,0,0,0,0,0,
鎌田区民集会所,131121,東京都,世田谷区,東京都世田谷区鎌田2-1-24,35.617018,139.613316,1,0,0,0,0,0,0,0,0,0,0,0,
砧南中学校,131121,東京都,世田谷区,東京都世田谷区鎌田3-13-20,35.62145,139.613673,1,0,0,0,0,0,0,0,0,0,0,1,
駒澤大学玉川校舎,131121,東京都,世田谷区,東京都世田谷区宇奈根1-1-1,35.617909,139.608547,1,0,0,0,0,0,0,0,1,1,0,1,
ゆうぽうと世田谷レクセンター,131121,東京都,世田谷区,東京都世田谷区鎌田2-17-1,35.619667,139.61048,1,0,0,0,0,0,0,0,0,0,0,0,
氷川神社,131121,東京都,世田谷区,東京都世田谷区大蔵6-6-7,35.625075,139.611519,1,0,0,0,0,0,0,0,0,0,0,0,
砧総合支所,131121,東京都,世田谷区,東京都世田谷区成城6-2-1,35.641253,139.600655,1,1,0,0,0,0,0,0,1,0,1,1,オストメイト設備
喜多見地区会館,131121,東京都,世田谷区,東京都世田谷区喜多見8-23-23,35.637084,139.589768,0,1,0,0,0,0,0,0,1,0,0,0,オストメイト設備
岡本地区会館,131121,東京都,世田谷区,東京都世田谷区岡本1-25-4,35.625051,139.61951,0,1,0,0,0,0,0,0,1,0,0,0,オストメイト設備・車いす用トイレ
大蔵地区会館,131121,東京都,世田谷区,東京都世田谷区砧3-5-6,35.634869,139.610847,0,1,0,0,0,0,0,0,0,0,0,1,オストメイト設備・車いす用トイレ
宮坂区民センター,131121,東京都,世田谷区,東京都世田谷区宮坂1-24-6,35.647947,139.64476,1,1,0,0,0,0,1,0,1,1,1,1,誘導鈴・自動ドア・オストメイト設備・授乳室・おむつ交換台
池之上青少年会館,131121,東京都,世田谷区,東京都世田谷区代沢2-37-18,35.659349,139.673361,0,1,0,0,0,0,0,0,1,1,1,1,オストメイト設備
成城さくら児童館,131121,東京都,世田谷区,東京都世田谷区成城3-18-23,35.634124,139.597605,0,1,0,0,0,0,0,0,0,0,0,1,
瀬田地区会館,131121,東京都,世田谷区,東京都世田谷区瀬田4-18-11,35.62141,139.627342,0,1,0,0,0,0,0,0,1,0,0,0,
尾山台地区会館,131121,東京都,世田谷区,東京都世田谷区等々力2-17-14,35.605684,139.652563,0,1,0,0,0,0,0,0,1,0,0,0,
上野毛地区会館,131121,東京都,世田谷区,東京都世田谷区中町2-33-11,35.611467,139.640931,0,1,0,0,0,0,0,0,1,0,0,1,
池尻区民集会所,131121,東京都,世田谷区,東京都世田谷区池尻3-27-21,35.64986,139.67871,1,1,0,0,0,0,1,0,1,1,1,1,
経堂地区会館,131121,東京都,世田谷区,東京都世田谷区経堂3-37-13,35.65183,139.63215,1,0,0,0,0,0,1,0,1,1,0,1,誘導鈴・自動ドア・オストメイト設備・おむつ交換台
下馬地区会館,131121,東京都,世田谷区,東京都世田谷区下馬4-13-4,35.63596,139.67906,1,0,0,0,0,0,1,0,1,1,0,1,誘導鈴・自動ドア・オストメイト設備・おむつ交換台
上馬地区会館,131121,東京都,世田谷区,東京都世田谷区上馬4-10-17,35.63511,139.66243,1,0,0,0,0,0,1,0,1,1,1,1,誘導鈴・自動ドア・オストメイト設備・授乳室・おむつ交換台
北沢タウンホール,131121,東京都,世田谷区,東京都世田谷区北沢2-8-18,35.66204,139.66969,1,0,0,0,0,0,1,0,1,1,1,1,授乳室・オストメイト設備・ベビーベッド
松沢区民集会所,131121,東京都,世田谷区,東京都世田谷区赤堤5-31-5,35.66556,139.63834,1,0,0,0,0,0,1,0,1,1,1,1,オストメイト設備
玉川区民会館,131121,東京都,世田谷区,東京都世田谷区等々力3-4-1,35.60871,139.64852,1,0,0,0,0,0,0,0,1,0,0,1,
都立園芸高校,131121,東京都,世田谷区,東京都世田谷区深沢5-38-1,35.61902,139.6486,1,0,0,0,0,0,0,0,0,0,0,0,
東京都市大学等々力キャンパス,131121,東京都,世田谷区,東京都世田谷区等々力8-9-18,35.61374,139.65101,1,0,0,0,0,0,0,0,0,0,0,0,
祖師谷小学校,131121,東京都,世田谷区,東京都世田谷区祖師谷3-49-1,35.64588,139.60464,1,0,0,0,0,0,0,0,1,1,0,0,
千歳小学校,131121,東京都,世田谷区,東京都世田谷区成城9-6-1,35.65165,139.59791,1,0,0,0,0,0,0,0,1,1,0,1,オストメイト設備
希望丘複合施設（区民集会所）,131121,東京都,世田谷区,東京都世田谷区船橋6-25-1,35.65898,139.62109,1,0,0,0,0,0,0,0,1,1,1,1,オストメイト設備
山野小学校,131121,東京都,世田谷区,東京都世田谷区砧6-7-1,35.64352,139.61333,1,0,0,0,0,0,0,0,1,0,0,1,
区立大蔵第二運動場体育館,131121,東京都,世田谷区,東京都世田谷区大蔵4-7-1,35.63136,139.61489,1,0,0,0,0,0,0,0,1,0,1,1,
上北沢区民センター,131121,東京都,世田谷区,東京都世田谷区上北沢3-8-9,35.66748,139.62549,1,0,0,0,0,0,1,0,1,0,1,1,自動ドア・オストメイト対応トイレ・ベビーシート付トイレ
上祖師谷地区会館,131121,東京都,世田谷区,東京都世田谷区上祖師谷4-5-6,35.65358,139.59665,1,0,0,0,0,0,1,0,1,1,1,1,オストメイト対応トイレ・ベビーベッド・シートあり
烏山区民センター,131121,東京都,世田谷区,東京都世田谷区南烏山6-2-19,35.66881,139.60059,1,0,0,0,0,0,1,0,1,0,1,1,自動ドア・オストメイト対応トイレ・乳幼児用おむつ交換台付きトイレ・大型ベッド付きトイレ
駒場東大一帯,130001,東京都,,東京都目黒区駒場、世田谷区北沢、渋谷区松濤、富ヶ谷,35.66112333,139.6827728,0,0,0,0,0,1,0,0,0,0,0,0,
世田谷公園一帯,130001,東京都,,東京都目黒区東山、世田谷区池尻,35.6434823,139.6823346,0,0,0,0,0,1,0,0,0,0,0,0,
日本大学文理学部一帯,130001,東京都,,東京都世田谷区桜上水,35.66359112,139.6333185,0,0,0,0,0,1,0,0,0,0,0,0,
羽根木公園一帯,130001,東京都,,東京都世田谷区代田、松原,35.65809524,139.6543202,0,0,0,0,0,1,0,0,0,0,0,0,
昭和女子大学一帯,130001,東京都,,東京都世田谷区下馬、太子堂,35.64353609,139.6771745,0,0,0,0,0,1,0,0,0,0,0,0,
駒沢オリンピック公園一帯,130001,東京都,,東京都目黒区東が丘、八雲、世田谷区駒沢、駒沢公園、深沢,35.62550776,139.6613951,0,0,0,0,0,1,0,0,0,0,0,0,
都立園芸高校,130001,東京都,,東京都世田谷区深沢,35.61858348,139.6477095,0,0,0,0,0,1,0,0,0,0,0,0,
砧公園・大蔵運動公園一帯,130001,東京都,,東京都世田谷区大蔵、砧公園,35.62967299,139.612748,0,0,0,0,0,1,0,0,0,0,0,0,
馬事公苑・東京農業大学一帯,130001,東京都,,東京都世田谷区上用賀、桜、桜台,35.63837762,139.6323435,0,0,0,0,0,1,0,0,0,0,0,0,
祖師谷公園・総合工科高校一帯,130001,東京都,,東京都世田谷区上祖師谷、成城,35.65132808,139.5950237,0,0,0,0,0,1,0,0,0,0,0,0,
第一生命グランド一帯,130001,東京都,,東京都世田谷区上祖師谷、給田,35.66217484,139.594521,0,0,0,0,0,1,0,0,0,0,0,0,
芦花公園・明大八幡山グランド一帯,130001,東京都,,東京都世田谷区粕谷、八幡山、船橋,35.66248242,139.6171894,0,0,0,0,0,1,0,0,0,0,0,0,
玉川野毛町公園一帯,130001,東京都,,東京都世田谷区野毛,35.60490159,139.64295,0,0,0,0,0,1,0,0,0,0,0,0,
成城学園一帯,130001,東京都,,東京都世田谷区成城,35.64348559,139.6011295,0,0,0,0,0,1,0,0,0,0,0,0,
国士舘大学一帯,130001,東京都,,東京都世田谷区梅丘、世田谷、若林,35.6478918,139.6534035,0,0,0,0,0,1,0,0,0,0,0,0,
きたみふれあい広場一帯,130001,東京都,,東京都世田谷区喜多見,35.6383301,139.588666,0,0,0,0,0,1,0,0,0,0,0,0,
学芸大学附属高校一帯,130001,東京都,,東京都世田谷区下馬,35.63427737,139.67729,0,0,0,0,0,1,0,0,0,0,0,0,
烏山北住宅・日本女子体育大学一帯,130001,東京都,,東京都世田谷区北烏山,35.67636911,139.5890172,0,0,0,0,0,1,0,0,0,0,0,0,
多摩川河川敷・二子橋一帯,130001,東京都,,東京都世田谷区宇奈根、鎌田、喜多見、玉川,35.614524,139.619971,0,0,0,0,0,1,0,0,0,0,0,0,
多摩川河川敷・田園調布先一帯,130001,東京都,,東京都大田区田園調布、世田谷区上野毛、玉堤、野毛,35.60532543,139.6346766,0,0,0,0,0,1,0,0,0,0,0,0,
東京学芸大学附属世田谷小・中学校一帯,130001,東京都,,東京都世田谷区深沢,35.62014828,139.6584196,0,0,0,0,0,1,0,0,0,0,0,0,
太子堂円泉ヶ丘公園・三宿の森緑地一帯,130001,東京都,,東京都世田谷区三宿、太子堂,35.651114,139.673404,0,0,0,0,0,1,0,0,0,0,0,0,
駒場地区,130001,東京都,,東京都目黒区駒場、大橋、世田谷区池尻,35.656225,139.688141,0,0,0,0,0,1,0,0,0,0,0,0,
明治神宮外苑地区,130001,東京都,,東京都港区北青山、新宿区霞ヶ丘町、渋谷区神宮前、千駄ケ谷,35.67775338,139.7171293,0,0,0,0,0,1,0,0,0,0,0,0,
新宿御苑,130001,東京都,,東京都新宿区内藤町、渋谷区千駄ケ谷,35.68544234,139.7105405,0,0,0,0,0,1,0,0,0,0,0,0,
駒場東大一帯,130001,東京都,,東京都目黒区駒場、世田谷区北沢、渋谷区松濤、富ヶ谷,35.66112333,139.6827728,0,0,0,0,0,1,0,0,0,0,0,0,
中目黒公園一帯,130001,東京都,,東京都目黒区中目黒、渋谷区恵比寿南,35.6408722,139.7049268,0,0,0,0,0,1,0,0,0,0,0,0,
明治神宮・代々木公園一帯,130001,東京都,,東京都渋谷区神南、代々木神園町,35.67391281,139.6974292,0,0,0,0,0,1,0,0,0,0,0,0,
青山学院・実践女子学園一帯,130001,東京都,,東京都渋谷区渋谷、東,35.65724598,139.710208,0,0,0,0,0,1,0,0,0,0,0,0,
聖心女子大学一帯,130001,東京都,,東京都渋谷区広尾,35.65350929,139.7199305,0,0,0,0,0,1,0,0,0,0,0,0,
恵比寿ガーデンプレイス,130001,東京都,,東京都目黒区三田、渋谷区恵比寿,35.64202332,139.7142619,0,0,0,0,0,1,0,0,0,0,0,0,
江古田の森公園一帯,130001,東京都,,東京都中野区江古田,35.72922809,139.665812,0,0,0,0,0,1,0,0,0,0,0,0,
哲学堂公園一帯,130001,東京都,,東京都新宿区西落合、中井、中落合、東京都中野区上高田、松が丘,35.72263318,139.6743111,0,0,0,0,0,1,0,0,0,0,0,0,
コーシャハイム中野弥生町・立正佼成会大聖堂一帯,130001,東京都,,東京都中野区弥生町、杉並区和田,35.68776541,139.6586191,0,0,0,0,0,1,0,0,0,0,0,0,
中野区役所一帯,130001,東京都,,東京都中野区中野、杉並区高円寺北,35.70819052,139.6636426,0,0,0,0,0,1,0,0,0,0,0,0,
公社鷺宮西住宅一帯,130001,東京都,,東京都中野区白鷺,35.72115886,139.6336269,0,0,0,0,0,1,0,0,0,0,0,0,
平和の森公園一帯,130001,東京都,,東京都中野区新井,35.71627288,139.661963,0,0,0,0,0,1,0,0,0,0,0,0,
東京大学附属中等教育学校一帯,130001,東京都,,東京都中野区南台,35.6853254,139.6738065,0,0,0,0,0,1,0,0,0,0,0,0,
都立武蔵丘高校一帯,130001,東京都,,東京都中野区上鷺宮,35.72783787,139.6300349,0,0,0,0,0,1,0,0,0,0,0,0,
白鷺一丁目地区,130001,東京都,,東京都中野区白鷺、若宮,35.71979797,139.6398535,0,0,0,0,0,1,0,0,0,0,0,0,
本五ふれあい公園一帯,130001,東京都,,東京都中野区本町、弥生町,35.692033,139.669757,0,0,0,0,0,1,0,0,0,0,0,0,
杉並第一小学校,131156,東京都,杉並区,東京都杉並区阿佐谷北1-5-27,35.706407,139.636849,1,1,0,1,0,1,1,0,0,1,0,1,
杉並第二小学校,131156,東京都,杉並区,東京都杉並区成田西3-4-1,35.693072,139.631841,1,1,0,1,0,1,1,0,0,1,0,1,
旧杉並第四小学校,131156,東京都,杉並区,東京都杉並区高円寺北2-14-13,35.706623,139.653481,0,0,0,1,0,1,0,0,0,0,0,0,
杉並第七小学校,131156,東京都,杉並区,東京都杉並区阿佐谷南3-19-2,35.702702,139.63098,0,0,0,1,0,1,0,0,0,0,0,0,
西田小学校,131156,東京都,杉並区,東京都杉並区荻窪1-38-15,35.694691,139.622084,0,0,0,1,0,1,0,0,0,0,0,0,
東田小学校,131156,東京都,杉並区,東京都杉並区成田東1-21-1,35.691522,139.638749,1,1,0,1,0,1,1,0,0,0,0,1,
馬橋小学校,131156,東京都,杉並区,東京都杉並区高円寺北4-28-5,35.708735,139.643231,0,0,0,1,0,1,0,0,0,0,0,1,
高円寺学園,131156,東京都,杉並区,東京都杉並区高円寺北1-4-11,35.706754,139.655114,0,0,0,1,0,1,0,0,1,0,0,1,
杉森中学校,131156,東京都,杉並区,東京都杉並区阿佐谷北5-45-24,35.711887,139.641274,0,0,0,1,0,1,0,0,1,0,0,1,
阿佐ヶ谷中学校,131156,東京都,杉並区,東京都杉並区阿佐谷南1-17-3,35.700507,139.636344,1,1,0,1,0,1,1,0,1,0,0,1,
東田中学校,131156,東京都,杉並区,東京都杉並区成田東3-19-17,35.694314,139.63491,0,0,0,1,0,1,0,0,0,0,0,1,
松溪中学校,131156,東京都,杉並区,東京都杉並区荻窪2-3-1,35.695905,139.621987,0,0,0,1,0,1,0,0,1,0,0,1,
桃井第一小学校,131156,東京都,杉並区,東京都杉並区桃井2-6-1,35.712053,139.609067,0,0,0,1,0,1,0,0,0,1,0,1,
桃井第五小学校,131156,東京都,杉並区,東京都杉並区下井草4-22-4,35.722074,139.619627,0,0,0,1,0,1,0,0,1,0,0,1,
四宮小学校,131156,東京都,杉並区,東京都杉並区上井草2-12-26,35.72161,139.610126,1,1,0,1,0,1,1,0,0,0,0,1,
沓掛小学校,131156,東京都,杉並区,東京都杉並区清水3-1-9,35.716311,139.620642,0,0,0,1,0,1,0,0,0,1,0,1,車いす用昇降機
八成小学校,131156,東京都,杉並区,東京都杉並区井草2-25-4,35.728508,139.619781,0,0,0,1,0,1,0,0,0,0,0,1,
東原中学校,131156,東京都,杉並区,東京都杉並区下井草1-28-5,35.717644,139.630591,0,0,0,1,0,1,0,0,0,0,0,0,
中瀬中学校,131156,東京都,杉並区,東京都杉並区下井草4-3-29,35.719372,139.619534,1,1,0,1,0,1,1,0,0,0,0,1,
井荻中学校,131156,東京都,杉並区,東京都杉並区今川2-13-24,35.718097,139.610426,0,0,0,1,0,1,0,0,1,0,0,1,
高井戸第三小学校,131156,東京都,杉並区,東京都杉並区下高井戸4-16-24,35.672005,139.630861,1,1,0,1,0,1,1,0,0,0,0,0,
浜田山小学校,131156,東京都,杉並区,東京都杉並区浜田山4-23-1,35.68557,139.62942,0,0,0,1,0,1,0,0,0,0,0,1,
旧新泉小学校,131156,東京都,杉並区,東京都杉並区和泉1-44-26,35.675753,139.656088,0,0,0,1,0,1,0,0,0,0,0,0,
方南小学校,131156,東京都,杉並区,東京都杉並区方南1-52-14,35.679544,139.658444,1,1,0,1,0,1,1,0,1,0,0,1,
永福小学校,131156,東京都,杉並区,東京都杉並区永福2-16-33,35.673363,139.639418,1,1,0,1,0,1,1,0,1,0,0,1,
向陽中学校,131156,東京都,杉並区,東京都杉並区下高井戸3-24-1,35.672526,139.634793,0,0,0,1,0,1,0,0,0,0,0,0,
泉南中学校,131156,東京都,杉並区,東京都杉並区堀ノ内1-3-1,35.684262,139.655273,1,1,0,1,0,1,1,0,1,1,0,1,
杉並第九小学校,131156,東京都,杉並区,東京都杉並区本天沼1-2-19,35.713631,139.632929,0,0,0,1,0,1,0,0,0,0,0,1,
桃井第二小学校,131156,東京都,杉並区,東京都杉並区荻窪5-10-25,35.701767,139.617451,0,0,0,1,0,1,0,0,1,0,0,1,
天沼小学校,131156,東京都,杉並区,東京都杉並区天沼2-46-3,35.710742,139.623069,0,0,0,1,0,1,0,0,1,0,0,1,
天沼中学校,131156,東京都,杉並区,東京都杉並区本天沼3-10-20,35.711894,139.620826,0,0,0,1,0,1,0,0,0,0,0,0,
保育室若杉,131156,東京都,杉並区,東京都杉並区天沼3-15-20,35.708572,139.618616,0,0,0,1,0,1,0,0,0,0,0,0,
神明中学校,131156,東京都,杉並区,東京都杉並区南荻窪2-37-28,35.700327,139.609118,0,0,0,1,0,1,0,0,0,0,0,1,
杉並第三小学校,131156,東京都,杉並区,東京都杉並区高円寺南1-15-13,35.699555,139.656528,1,1,0,1,0,1,1,0,0,1,0,0,
杉並第六小学校,131156,東京都,杉並区,東京都杉並区阿佐谷南1-24-21,35.70151,139.643248,0,0,0,1,0,1,0,0,0,0,0,0,
旧杉並第八小学校,131156,東京都,杉並区,東京都杉並区高円寺南2-40-24,35.701176,139.651129,0,0,0,1,0,1,0,0,0,0,0,0,
杉並第十小学校,131156,東京都,杉並区,東京都杉並区和田3-55-49,35.696871,139.657509,0,0,0,1,0,1,0,0,0,1,0,1,
大宮小学校,131156,東京都,杉並区,東京都杉並区堀ノ内1-12-16,35.683459,139.649496,0,0,0,1,0,1,0,0,0,1,0,1,
堀之内小学校,131156,東京都,杉並区,東京都杉並区堀ノ内3-24-11,35.693161,139.646752,1,1,0,1,0,1,1,0,0,0,0,1,
和田小学校,131156,東京都,杉並区,東京都杉並区和田2-30-21,35.690614,139.657124,1,1,0,1,0,1,1,0,0,0,0,1,
済美小学校,131156,東京都,杉並区,東京都杉並区堀ノ内1-17-24,35.685475,139.649538,0,0,0,1,0,1,0,0,0,1,0,0,
松ノ木小学校,131156,東京都,杉並区,東京都杉並区松ノ木1-2-26,35.687427,139.642726,0,0,0,1,0,1,0,0,0,0,0,0,
高南中学校,131156,東京都,杉並区,東京都杉並区和田3-40-10,35.695621,139.657963,0,0,0,1,0,1,0,0,0,0,0,1,
松ノ木中学校,131156,東京都,杉並区,東京都杉並区松ノ木1-4-1,35.686823,139.641016,1,1,0,1,0,1,1,0,0,0,0,0,
大宮中学校,131156,東京都,杉並区,東京都杉並区堀ノ内1-16-38,35.686659,139.648057,1,1,0,1,0,1,1,0,0,1,0,1,
和田中学校,131156,東京都,杉並区,東京都杉並区和田2-21-8,35.690403,139.658478,0,0,0,1,0,1,0,0,0,0,0,0,
荻窪小学校,131156,東京都,杉並区,東京都杉並区宮前2-13-18,35.694966,139.611976,1,1,0,1,0,1,1,0,1,0,0,1,
高井戸小学校,131156,東京都,杉並区,東京都杉並区高井戸西2-2-1,35.6843,139.614758,1,1,0,1,0,1,1,0,1,1,0,1,
高井戸第二小学校,131156,東京都,杉並区,東京都杉並区久我山4-49-1,35.691807,139.599328,0,0,0,1,0,1,0,0,1,0,0,1,
高井戸第四小学校,131156,東京都,杉並区,東京都杉並区西荻南1-8-16,35.698271,139.602313,0,0,0,1,0,1,0,0,0,0,0,1,
松庵小学校,131156,東京都,杉並区,東京都杉並区松庵2-23-24,35.70012,139.593073,0,0,0,1,0,1,0,0,0,0,0,1,
富士見丘小学校,131156,東京都,杉並区,東京都杉並区上高井戸2-16-13,35.67967,139.60713,0,0,0,1,0,1,0,0,0,0,0,1,
高井戸東小学校,131156,東京都,杉並区,東京都杉並区高井戸東1-12-1,35.67999,139.619468,1,1,0,1,0,1,1,0,0,0,0,1,
久我山小学校,131156,東京都,杉並区,東京都杉並区久我山5-18-7,35.686088,139.606141,0,0,0,1,0,1,0,0,0,1,0,1,
宮前中学校,131156,東京都,杉並区,東京都杉並区宮前2-12-1,35.693255,139.610588,0,0,0,1,0,1,0,0,1,0,0,1,
富士見丘中学校,131156,東京都,杉並区,東京都杉並区久我山2-20-1,35.682772,139.605711,0,0,0,1,0,1,0,0,0,0,0,1,
高井戸中学校,131156,東京都,杉並区,東京都杉並区高井戸東1-28-1,35.681117,139.622275,0,0,0,1,0,1,0,0,1,0,0,1,
西宮中学校,131156,東京都,杉並区,東京都杉並区宮前5-1-25,35.692586,139.601748,0,0,0,1,0,1,0,0,0,0,0,1,
桃井第三小学校,131156,東京都,杉並区,東京都杉並区西荻北2-10-7,35.705375,139.602375,1,1,0,1,0,1,1,0,0,0,0,1,
桃井第四小学校,131156,東京都,杉並区,東京都杉並区善福寺3-3-5,35.716966,139.594333,0,0,0,1,0,1,0,0,0,1,0,1,
井荻小学校,131156,東京都,杉並区,東京都杉並区善福寺1-10-19,35.711663,139.596256,0,0,0,1,0,1,0,0,0,0,0,1,
三谷小学校,131156,東京都,杉並区,東京都杉並区上井草3-14-12,35.719896,139.60204,0,0,0,1,0,1,0,0,0,1,0,0,
井草中学校,131156,東京都,杉並区,東京都杉並区上井草3-20-11,35.721826,139.602463,0,0,0,1,0,1,0,0,1,0,0,1,
荻窪中学校,131156,東京都,杉並区,東京都杉並区善福寺1-8-3,35.710314,139.596408,1,1,0,1,0,1,1,0,0,0,0,1,
杉並和泉学園,131156,東京都,杉並区,東京都杉並区和泉2-17-14,35.674535,139.648873,0,0,0,1,0,1,0,0,1,0,0,1,
馬橋公園,131156,東京都,杉並区,東京都杉並区高円寺北4-35-5,35.709625,139.643775,0,0,0,1,0,1,0,0,0,0,0,0,
塚山公園,131156,東京都,杉並区,東京都杉並区下高井戸5-23-12,35.675438,139.624994,0,0,0,1,0,1,0,0,0,0,0,0,
荻窪地域区民センター,131156,東京都,杉並区,東京都杉並区荻窪2-34-20,35.698512,139.618977,1,1,0,1,0,1,1,0,1,1,1,1,
杉並会館,131156,東京都,杉並区,東京都杉並区上荻3-29-5,35.710461,139.607793,1,1,0,0,0,0,1,0,1,1,0,1,
久我山会館,131156,東京都,杉並区,東京都杉並区久我山3-23-20,35.686586,139.599613,1,1,0,0,0,0,1,0,0,1,0,1,
下高井戸おおぞら公園,131156,東京都,杉並区,東京都杉並区下高井戸2-28-23,35.671213,139.63723,0,0,0,1,0,1,0,0,0,0,0,0,
高井戸地域区民センター,131156,東京都,杉並区,東京都杉並区高井戸東3-7-5,35.683634,139.616582,1,1,0,1,0,1,1,0,1,1,1,1,
西荻地域区民センター,131156,東京都,杉並区,東京都杉並区桃井4-3-2,35.712586,139.602187,1,1,0,1,0,1,1,0,1,1,1,1,
阿佐谷地域区民センター,131156,東京都,杉並区,東京都杉並区阿佐谷南1-47-17,35.704015,139.637489,1,1,0,1,0,1,1,0,1,1,1,1,
高円寺地域区民センター,131156,東京都,杉並区,東京都杉並区梅里1-22-32,35.696998,139.65393,1,1,0,1,0,1,1,0,1,1,1,1,
永福和泉地域区民センター,131156,東京都,杉並区,東京都杉並区和泉3-8-18,35.675699,139.645966,1,1,0,1,0,1,1,0,1,1,1,1,
井草地域区民センター,131156,東京都,杉並区,東京都杉並区下井草5-7-22,35.720702,139.616525,1,1,0,1,0,1,1,0,1,1,1,1,
コーシャハイム中野弥生町・立正佼成会大聖堂一帯,130001,東京都,,東京都中野区弥生町、杉並区和田,35.68776541,139.6586191,0,0,0,0,0,1,0,0,0,0,0,0,
中野区役所一帯,130001,東京都,,東京都中野区中野、杉並区高円寺北,35.70819052,139.6636426,0,0,0,0,0,1,0,0,0,0,0,0,
明大和泉校舎一帯,130001,東京都,,東京都杉並区永福,35.6698562,139.6457415,0,0,0,0,0,1,0,0,0,0,0,0,
和田堀公園（東地区）一帯,130001,東京都,,東京都杉並区大宮、堀ノ内,35.68415468,139.6432893,0,0,0,0,0,1,0,0,0,0,0,0,
善福寺川緑地･和田堀公園（西地区）一帯,130001,東京都,,東京都杉並区成田西、成田東、松ノ木、大宮,35.68653022,139.6345112,0,0,0,0,0,1,0,0,0,0,0,0,
シャレール荻窪一帯,130001,東京都,,東京都杉並区荻窪,35.6969682,139.6258924,0,0,0,0,0,1,0,0,0,0,0,0,
柏の宮公園一帯,130001,東京都,,東京都杉並区高井戸東、浜田山,35.6798479,139.6245765,0,0,0,0,0,1,0,0,0,0,0,0,
高井戸駅一帯,130001,東京都,,東京都杉並区高井戸西、高井戸東,35.68368112,139.6142969,0,0,0,0,0,1,0,0,0,0,0,0,
久我山二丁目地区グランド一帯,130001,東京都,,東京都杉並区久我山,35.68323662,139.6044345,0,0,0,0,0,1,0,0,0,0,0,0,
上井草スポーツセンター一帯,130001,東京都,,東京都杉並区今川、上井草、東京都練馬区下石神井,35.72279821,139.6014323,0,0,0,0,0,1,0,0,0,0,0,0,
蚕糸の森公園一帯,130001,東京都,,東京都杉並区和田,35.69704016,139.6568089,0,0,0,0,0,1,0,0,0,0,0,0,
井草森公園一帯,130001,東京都,,東京都杉並区井草,35.72717625,139.6119065,0,0,0,0,0,1,0,0,0,0,0,0,
善福寺公園・東京女子大学一帯,130001,東京都,,東京都杉並区善福寺,35.71524392,139.5903208,0,0,0,0,0,1,0,0,0,0,0,0,
井草八幡宮一帯,130001,東京都,,東京都杉並区善福寺,35.71492181,139.5907815,0,0,0,0,0,1,0,0,0,0,0,0,
セシオン杉並・妙法寺一帯,130001,東京都,,東京都杉並区梅里、堀ノ内,35.69699852,139.6539548,0,0,0,0,0,1,0,0,0,0,0,0,
桃井原っぱ公園一帯,130001,東京都,,東京都杉並区桃井,35.713179,139.607425,0,0,0,0,0,1,0,0,0,0,0,0,
仰高小学校,131164,東京都,豊島区,東京都豊島区駒込5ー1−19,35.736529,139.738448,1,1,0,1,0,0,1,0,0,0,0,1,ベビーベット
駒込小学校,131164,東京都,豊島区,東京都豊島区駒込3-13-1,35.7384941,139.74313,1,1,0,1,0,0,1,0,0,0,0,1,
巣鴨小学校,131164,東京都,豊島区,東京都豊島区南大塚1-24-10,35.728636,139.73475,1,1,0,1,0,0,1,0,0,0,0,1,ベビーベット・オストメイト設備
清和小学校,131164,東京都,豊島区,東京都豊島区巣鴨3-14-1,35.735844,139.732935,1,1,0,1,0,0,1,0,1,1,0,1,ベビーベット・オストメイト設備
西巣鴨小学校,131164,東京都,豊島区,東京都豊島区西巣鴨1-27-1,35.738403,139.726413,1,1,0,1,0,0,1,0,1,1,0,1,ベビーベット・オストメイト設備
豊成小学校,131164,東京都,豊島区,東京都豊島区上池袋1-18-24,35.734866,139.721982,1,1,0,1,0,0,1,0,0,0,0,1,
朋有小学校,131164,東京都,豊島区,東京都豊島区東池袋4-40-1,35.728846,139.723529,1,1,0,1,0,0,1,0,0,0,0,1,オストメイト設備
朝日小学校,131164,東京都,豊島区,東京都豊島区巣鴨5-33-1,35.741105,139.733453,1,1,0,1,0,0,1,0,0,0,0,1,ベビーベット
池袋第一小学校,131164,東京都,豊島区,東京都豊島区上池袋4-28-1,35.741489,139.71886,1,1,0,1,0,0,1,0,0,0,0,1,ベビーベット・オストメイト設備
池袋小学校,131164,東京都,豊島区,東京都豊島区池袋4-23-8,35.737899,139.709501,1,1,0,1,0,0,1,0,0,0,0,1,
目白小学校,131164,東京都,豊島区,東京都豊島区目白2-11-6,35.720792,139.709337,1,1,0,1,0,0,1,0,1,1,1,1,ベビーベット・オストメイト設備
長崎小学校,131164,東京都,豊島区,東京都豊島区長崎2-6-3,35.728605,139.690184,1,1,0,1,0,0,1,0,1,1,1,1,ベビーベット・オストメイト設備
要小学校,131164,東京都,豊島区,東京都豊島区要町2-3-20,35.734115,139.693623,1,1,0,1,0,0,1,0,0,0,0,1,オストメイト設備
椎名町小学校,131164,東京都,豊島区,東京都豊島区南長崎4-30-5,35.726715,139.685857,1,1,0,1,0,0,1,0,0,0,0,1,ベビーベット・オストメイト設備
高松小学校,131164,東京都,豊島区,東京都豊島区高松2-57-22,35.739561,139.69729,1,1,0,1,0,0,1,0,0,0,0,1,ベビーベット・オストメイト設備
千早小学校,131164,東京都,豊島区,東京都豊島区千早3-33-5,35.735021,139.68713,1,1,0,1,0,0,1,0,0,0,0,1,オストメイト設備
富士見台小学校,131164,東京都,豊島区,東京都豊島区南長崎1-10-5,35.724679,139.693111,1,1,0,1,0,0,1,0,0,0,0,1,ベビーベット・オストメイト設備
高南小学校,131164,東京都,豊島区,東京都豊島区高田2-12-7,35.71646,139.713907,0,0,0,1,0,0,0,0,0,0,0,1,オストメイト設備
南池袋小学校,131164,東京都,豊島区,東京都豊島区南池袋3-18-12,35.724339,139.714857,1,1,0,1,0,0,1,0,1,1,1,1,ベビーベット
さくら小学校,131164,東京都,豊島区,東京都豊島区長崎6-16-1,35.736021,139.680061,1,1,0,1,0,0,1,0,0,0,0,1,ベビーベット・オストメイト設備
旧文成小学校（池袋第一小学校仮校舎）,131164,東京都,豊島区,東京都豊島区池袋本町4-36-1,35.744267,139.714485,1,1,0,1,0,0,1,0,0,0,0,1,ベビーベット・オストメイト設備
池袋第三小学校,131164,東京都,豊島区,東京都豊島区西池袋3-14-3,35.728442,139.702876,1,1,0,1,0,0,1,0,1,1,1,1,ベビーベット・オストメイト設備
駒込中学校,131164,東京都,豊島区,東京都豊島区駒込4-5-1,35.735881,139.74192,1,1,0,1,0,0,1,0,1,0,0,1,ベビーベット・オストメイト設備
巣鴨北中学校,131164,東京都,豊島区,東京都豊島区西巣鴨3-17-1,35.741366,139.729028,1,1,0,1,0,0,1,0,1,1,1,1,ベビーベット・オストメイト設備・大型ベット
西巣鴨中学校,131164,東京都,豊島区,東京都豊島区南大塚3-18-1,35.728946,139.727304,1,1,0,1,0,0,1,0,1,1,1,1,ベビーベット・オストメイト設備
千川中学校,131164,東京都,豊島区,東京都豊島区高松1-9-21,35.736019,139.70041,1,1,0,1,0,0,1,0,0,0,0,1,オストメイト設備
西池袋中学校,131164,東京都,豊島区,東京都豊島区西池袋4-7-1,35.727636,139.699954,1,1,0,1,0,0,1,0,1,1,1,1,ベビーベット・オストメイト設備
千登世橋中学校,131164,東京都,豊島区,東京都豊島区目白2-11-6,35.717126,139.711726,1,0,0,1,0,0,1,0,1,1,1,1,
明豊中学校,131164,東京都,豊島区,東京都豊島区長崎5-31-29,35.735723,139.684505,1,1,0,1,0,0,1,0,1,1,1,1,
池袋本町小学校・池袋中学校（連携校）,131164,東京都,豊島区,東京都豊島区池袋本町1-43-1,35.740768,139.714406,1,1,0,1,0,0,1,0,1,1,1,1,ベビーベット・オストメイト設備
西部区民事務所,131164,東京都,豊島区,東京都豊島区千早2-39-16,35.735776,139.691126,1,1,0,1,0,0,1,0,1,1,0,1,
豊島体育館,131164,東京都,豊島区,東京都豊島区要町3-47-8,35.740068,139.689474,1,1,0,1,0,0,1,0,1,1,1,1,車いす観客席7台・授乳室ママロ
南長崎スポーツ公園,131164,東京都,豊島区,東京都豊島区南長崎4-13-5,35.724461,139.683729,1,1,0,1,0,0,1,0,1,1,1,1,児童ドア・授乳室
みらい館大明,131164,東京都,豊島区,東京都豊島区池袋3-30-8,35.735646,139.70453,1,1,0,1,0,0,1,0,0,1,0,1,
旧真和中学校,131164,東京都,豊島区,東京都豊島区目白5-24-12,35.725485,139.697133,1,1,0,1,0,0,1,0,1,1,1,0,
染井墓地・駒込中学校一帯,130001,東京都,,東京都豊島区駒込、巣鴨、東京都北区西ケ原,35.73825642,139.737853,0,0,0,0,0,1,0,0,0,0,0,0,
雑司ヶ谷墓地,130001,東京都,,東京都豊島区南池袋,35.72288703,139.72002,0,0,0,0,0,1,0,0,0,0,0,0,
豊島区立総合体育場一帯,130001,東京都,,東京都豊島区東池袋,35.7292925,139.7208658,0,0,0,0,0,1,0,0,0,0,0,0,
学習院大学,130001,東京都,,東京都豊島区目白,35.71842843,139.7095315,0,0,0,0,0,1,0,0,0,0,0,0,
立教大学,130001,東京都,,東京都豊島区西池袋,35.73050138,139.7022385,0,0,0,0,0,1,0,0,0,0,0,0,
染井墓地・駒込中学校一帯,130001,東京都,,東京都豊島区駒込、巣鴨、東京都北区西ケ原,35.73825642,139.737853,0,0,0,0,0,1,0,0,0,0,0,0,
荒川河川敷一帯,130001,東京都,,東京都北区赤羽、赤羽北、岩淵町、志茂,35.78995838,139.715326,0,0,0,0,0,1,0,0,0,0,0,0,
桐ヶ丘・赤羽台・西が丘地区,130001,東京都,,東京都北区赤羽北、赤羽台、赤羽西、桐ヶ丘、西が丘、東京都板橋区清水町,35.77736717,139.711233,0,0,0,0,0,1,0,0,0,0,0,0,
豊島五丁目団地一帯,130001,東京都,,東京都北区豊島,35.76560945,139.752704,0,0,0,0,0,1,0,0,0,0,0,0,
王子六・飛鳥高校・駿台学園一帯,130001,東京都,,東京都北区王子,35.76152381,139.7400195,0,0,0,0,0,1,0,0,0,0,0,0,
ＪＲ田端・尾久駅周辺一帯,130001,東京都,,東京都北区上中里、東田端,35.74385201,139.7566932,0,0,0,0,0,1,0,0,0,0,0,0,
北区防災センター・旧古河庭園一帯,130001,東京都,,東京都北区上中里、西ケ原,35.74607045,139.7449601,0,0,0,0,0,1,0,0,0,0,0,0,
都営滝野川三丁目団地一帯,130001,東京都,,東京都北区滝野川,35.74771705,139.7291373,0,0,0,0,0,1,0,0,0,0,0,0,
十条台・北区中央公園一帯,130001,東京都,,東京都北区王子本町、十条台,35.75382647,139.7260689,0,0,0,0,0,1,0,0,0,0,0,0,
浮間公園・荒川河川敷緑地一帯,130001,東京都,,東京都北区浮間、板橋区新河岸、舟渡,35.79819724,139.6700518,0,0,0,0,0,1,0,0,0,0,0,0,
東京家政大学・加賀中学校一帯,130001,東京都,,東京都北区上十条、十条台、板橋区加賀,35.75535675,139.7207898,0,0,0,0,0,1,0,0,0,0,0,0,
王子五丁目団地一帯,130001,東京都,,東京都北区王子,35.76462276,139.734347,0,0,0,0,0,1,0,0,0,0,0,0,
飛鳥山公園,130001,東京都,,東京都北区王子、西ケ原,35.7511477,139.7384155,0,0,0,0,0,1,0,0,0,0,0,0,
北運動公園一帯,130001,東京都,,東京都北区神谷、志茂,35.77389922,139.7280129,0,0,0,0,0,1,0,0,0,0,0,0,
清水坂公園一帯,130001,東京都,,東京都北区十条仲原、中十条,35.76850628,139.7213272,0,0,0,0,0,1,0,0,0,0,0,0,
新河岸東公園一帯,130001,東京都,,東京都北区浮間、板橋区舟渡,35.795124,139.656246,0,0,0,0,0,1,0,0,0,0,0,0,
東京成徳学園・神谷堀公園一帯,130001,東京都,,東京都北区王子、豊島、神谷,35.767611,139.736826,0,0,0,0,0,1,0,0,0,0,0,0,
堀船地区一帯,130001,東京都,,東京都北区堀船,35.752568,139.748818,0,0,0,0,0,1,0,0,0,0,0,0,
赤羽北地区一帯,130001,東京都,,東京都北区赤羽北,35.786785,139.707226,0,0,0,0,0,1,0,0,0,0,0,0,
浮間一丁目地区,130001,東京都,,東京都北区浮間,35.788765,139.704729,0,0,0,0,0,1,0,0,0,0,0,0,
浮間小学校・浮間三丁目団地地区,130001,東京都,,東京都北区浮間,35.787913,139.700668,0,0,0,0,0,1,0,0,0,0,0,0,
第六瑞光小学校,131181,東京都,荒川区,東京都荒川区南千住1-4-11,35.733175,139.789219,1,0,1,0,0,0,1,0,0,0,0,1,
瑞光小学校,131181,東京都,荒川区,東京都荒川区南千住1-51-1,35.734917,139.791035,1,0,1,0,0,0,1,0,0,0,0,1,
石浜ふれあい館,131181,東京都,荒川区,東京都荒川区南千住3-28-2,35.731301,139.806454,1,0,1,0,0,0,1,0,1,1,0,1,
第二瑞光小学校,131181,東京都,荒川区,東京都荒川区南千住5-8-1,35.733556,139.794525,1,0,1,0,0,0,1,0,0,0,0,0,
南千住ふれあい館,131181,東京都,荒川区,東京都荒川区南千住6-36-13,35.738172,139.79104,1,0,1,0,0,0,1,0,1,1,0,1,
南千住駅前ふれあい館,131181,東京都,荒川区,東京都荒川区南千住7-1-1,35.733205,139.798309,1,0,1,0,0,0,1,0,1,1,0,1,
第三瑞光小学校,131181,東京都,荒川区,東京都荒川区南千住7-9-1,35.735615,139.7987,1,0,1,0,0,0,1,0,1,0,0,1,
南千住第二中学校,131181,東京都,荒川区,東京都荒川区南千住7-25-1,35.736128,139.799676,1,0,1,0,0,0,1,0,1,1,0,1,
汐入ふれあい館,131181,東京都,荒川区,東京都荒川区南千住8-2-2,35.734517,139.807037,1,0,1,0,0,0,1,0,1,1,0,1,
汐入小学校,131181,東京都,荒川区,東京都荒川区南千住8-2-3,35.735143,139.807227,1,0,1,0,0,0,1,0,1,1,0,1,
汐入東小学校,131181,東京都,荒川区,東京都荒川区南千住8-9-3,35.73895,139.811625,1,0,1,0,0,0,1,0,1,1,0,1,
第三中学校,131181,東京都,荒川区,東京都荒川区南千住8-10-1,35.737841,139.811259,1,0,1,0,0,0,1,0,1,1,0,1,
第一中学校,131181,東京都,荒川区,東京都荒川区荒川1-30-1,35.734498,139.787752,1,0,1,0,0,0,1,0,0,1,0,1,
第三峡田小学校,131181,東京都,荒川区,東京都荒川区荒川1-43-1,35.73356,139.786082,1,0,1,0,0,0,1,0,0,0,0,0,
第二峡田小学校,131181,東京都,荒川区,東京都荒川区荒川2-30-1,35.738546,139.782497,1,0,1,0,0,0,1,0,0,0,0,1,
峡田ふれあい館,131181,東京都,荒川区,東京都荒川区荒川3-3-10,35.733795,139.784091,1,0,1,0,0,0,1,0,1,1,0,1,
生涯学習･教育ｾﾝﾀｰ,131181,東京都,荒川区,東京都荒川区荒川3-49-1,35.734734,139.780116,1,0,1,0,0,0,1,0,1,1,0,1,
峡田小学校,131181,東京都,荒川区,東京都荒川区荒川3-77-1,35.736346,139.77731,1,0,1,0,0,0,1,0,1,1,0,1,
花の木ひろば館,131181,東京都,荒川区,東京都荒川区荒川5-50-5,35.74019,139.774773,1,0,1,0,0,0,1,0,0,1,0,0,
第九峡田小学校,131181,東京都,荒川区,東京都荒川区荒川6-8-1,35.742441,139.779499,1,0,1,0,0,0,1,0,0,0,0,1,
第四中学校,131181,東京都,荒川区,東京都荒川区荒川6-57-1,35.741247,139.77556,1,0,1,0,0,0,1,0,0,0,0,1,
荒川山吹ふれあい館,131181,東京都,荒川区,東京都荒川区荒川7-6-8,35.742546,139.784023,1,0,1,0,0,0,1,0,1,1,0,1,
町屋ふれあい館,131181,東京都,荒川区,東京都荒川区町屋1-35-8,35.744088,139.785824,1,0,1,0,0,0,1,0,1,1,0,1,
第五中学校,131181,東京都,荒川区,東京都荒川区町屋1-37-16,35.744473,139.787328,1,0,1,0,0,0,1,0,0,0,0,0,
第四峡田小学校,131181,東京都,荒川区,東京都荒川区町屋2-11-6,35.744951,139.780005,1,0,1,0,0,0,1,0,0,1,0,1,
第五峡田小学校,131181,東京都,荒川区,東京都荒川区町屋3-17-24,35.748273,139.781599,1,0,1,0,0,0,1,0,0,0,0,1,
大門小学校,131181,東京都,荒川区,東京都荒川区町屋4-27-8,35.74902,139.77711,1,0,1,0,0,0,1,0,0,1,0,1,
原中学校,131181,東京都,荒川区,東京都荒川区町屋5-12-6,35.751075,139.779438,1,0,1,0,0,0,1,0,1,1,0,1,
荒木田ふれあい館,131181,東京都,荒川区,東京都荒川区町屋6-13-2,35.750406,139.783399,1,0,1,0,0,0,1,0,1,1,0,1,
第七峡田小学校,131181,東京都,荒川区,東京都荒川区町屋8-19-12,35.748338,139.787807,1,0,1,0,0,0,1,0,0,0,0,0,
第九中学校,131181,東京都,荒川区,東京都荒川区東尾久2-23-5,35.743212,139.772874,1,0,1,0,0,0,1,0,0,0,0,1,
赤土小学校,131181,東京都,荒川区,東京都荒川区東尾久2-43-9,35.743209,139.769642,1,0,1,0,0,0,1,0,0,0,0,1,
東尾久ひろば館,131181,東京都,荒川区,東京都荒川区東尾久3-5-3,35.744539,139.773711,1,0,1,0,0,0,1,0,0,1,0,0,
尾久小学校,131181,東京都,荒川区,東京都荒川区東尾久5-6-7,35.747275,139.768811,1,0,1,0,0,0,1,0,0,0,0,1,
男女平等推進センター,131181,東京都,荒川区,東京都荒川区東尾久5-9-3,35.748244,139.768871,1,0,1,0,0,0,1,0,1,1,0,1,
尾久宮前小学校,131181,東京都,荒川区,東京都荒川区西尾久1-4-17,35.746006,139.764603,1,0,1,0,0,0,1,0,0,0,0,1,
尾久ふれあい館,131181,東京都,荒川区,東京都荒川区西尾久2-25-13,35.750208,139.7634,1,0,1,0,0,0,1,0,1,1,0,1,
尾久八幡中学校,131181,東京都,荒川区,東京都荒川区西尾久3-13-1,35.753188,139.763883,1,0,1,0,0,0,1,0,1,1,0,1,
第七中学校,131181,東京都,荒川区,東京都荒川区西尾久4-30-28,35.746484,139.758105,1,0,1,0,0,0,1,0,0,0,0,1,
尾久西小学校,131181,東京都,荒川区,東京都荒川区西尾久5-27-12,35.750244,139.758432,1,0,1,0,0,0,1,0,0,0,0,0,
尾久第六小学校,131181,東京都,荒川区,東京都荒川区西尾久8-26-9,35.751799,139.754546,1,0,1,0,0,0,1,0,1,1,0,1,
西尾久ふれあい館,131181,東京都,荒川区,東京都荒川区西尾久8-33-31,35.751598,139.753454,1,0,1,0,0,0,1,0,1,1,0,1,
第三日暮里小学校,131181,東京都,荒川区,東京都荒川区東日暮里3-10-17,35.728858,139.781392,1,0,1,0,0,0,1,0,0,0,0,1,
夕やけこやけふれあい館,131181,東京都,荒川区,東京都荒川区東日暮里3-11-19,35.729964,139.781378,1,0,1,0,0,0,1,0,1,1,0,1,
第二日暮里小学校,131181,東京都,荒川区,東京都荒川区東日暮里5-2-1,35.728401,139.77824,1,0,1,0,0,0,1,0,0,0,0,1,
竹台高等学校,131181,東京都,荒川区,東京都荒川区東日暮里5-14-1,35.72612,139.777845,1,0,1,0,0,0,1,0,0,0,0,0,
日暮里ひろば館,131181,東京都,荒川区,東京都荒川区西日暮里2-10-9,35.731119,139.77287,1,0,1,0,0,0,1,0,0,1,0,0,
ひぐらし小学校,131181,東京都,荒川区,東京都荒川区西日暮里2-32-5,35.731341,139.772516,1,0,1,0,0,0,1,0,0,0,0,0,
西日暮里二丁目ひろば館,131181,東京都,荒川区,東京都荒川区西日暮里2-32-25,35.731885,139.772272,1,0,1,0,0,0,1,0,1,1,0,1,
諏訪台中学校,131181,東京都,荒川区,東京都荒川区西日暮里2-36-8,35.732574,139.77174,1,0,1,0,0,0,1,0,0,0,0,1,
諏訪台ひろば館,131181,東京都,荒川区,東京都荒川区西日暮里3-3-12,35.729621,139.767582,1,1,1,0,0,0,1,0,0,1,0,0,
第一日暮里小学校,131181,東京都,荒川区,東京都荒川区西日暮里3-7-15,35.730688,139.766213,1,0,1,0,0,0,1,0,0,0,0,1,
西日暮里ふれあい館,131181,東京都,荒川区,東京都荒川区西日暮里6-24-4,35.736279,139.770781,1,0,1,0,0,0,1,0,1,1,0,1,
第六日暮里小学校,131181,東京都,荒川区,東京都荒川区西日暮里6-35-16,35.735396,139.769827,1,0,1,0,0,0,1,0,0,0,0,1,
日暮里サニーホール,131181,東京都,荒川区,東京都荒川区東日暮里5-50-5,35.727901,139.773224,0,1,0,0,0,0,0,0,1,1,0,1,
ゆいの森あらかわ,131181,東京都,荒川区,東京都荒川区荒川2-50-1,35.739521,139.784164,1,0,1,0,0,0,1,0,1,1,0,1,
荒川工業高等学校,131181,東京都,荒川区,東京都荒川区南千住6-42-1,35.737664,139.792235,1,0,1,0,0,0,1,0,1,1,0,1,
荒川自然公園一帯,130001,東京都,,東京都荒川区荒川,35.74224707,139.7874175,0,0,0,0,0,1,0,0,0,0,0,0,
都立尾久の原公園一帯,130001,東京都,,東京都荒川区東尾久、町屋,35.75125695,139.7746964,0,0,0,0,0,1,0,0,0,0,0,0,
都立汐入公園一帯,130001,東京都,,東京都荒川区南千住,35.736595,139.809979,0,0,0,0,0,1,0,0,0,0,0,0,
荒川工業高校一帯,130001,東京都,,東京都荒川区南千住,35.737348,139.792278,0,0,0,0,0,1,0,0,0,0,0,0,
板橋第二小学校,131199,東京都,板橋区,東京都板橋区板橋2-52-1,35.74897819,139.710429,1,0,0,1,0,0,0,0,0,0,0,0,
板橋第四小学校,131199,東京都,板橋区,東京都板橋区板橋4-9-13,35.74981726,139.7164594,1,0,0,1,0,0,1,0,1,1,0,1,
金沢小学校,131199,東京都,板橋区,東京都板橋区加賀2-2-1,35.75499065,139.7153403,0,0,0,1,0,0,0,0,1,0,0,1,
板橋第一中学校,131199,東京都,板橋区,東京都板橋区大山東町50-1,35.75044787,139.7047034,1,0,0,1,0,0,0,0,0,0,0,1,
板橋第五中学校,131199,東京都,板橋区,東京都板橋区板橋4-49-3,35.75243105,139.719575,0,0,0,1,0,0,0,0,0,0,0,0,
板橋第五小学校,131199,東京都,板橋区,東京都板橋区中丸町19-1,35.74177785,139.7049367,1,0,0,1,0,0,0,0,1,0,0,1,
板橋第七小学校,131199,東京都,板橋区,東京都板橋区大山金井町31-1,35.74559242,139.7046466,1,0,0,1,0,0,0,0,0,0,0,0,
板橋第一小学校,131199,東京都,板橋区,東京都板橋区氷川町13-1,35.75380657,139.70765,1,0,0,1,0,0,0,0,1,0,0,1,
中根橋小学校,131199,東京都,板橋区,東京都板橋区栄町14-1,35.75612413,139.7010595,0,0,0,1,0,0,0,0,0,0,0,1,
加賀小学校,131199,東京都,板橋区,東京都板橋区稲荷台23-1,35.76140078,139.7101755,1,0,0,1,0,0,0,0,0,0,0,1,
板橋第三中学校,131199,東京都,板橋区,東京都板橋区氷川町22-3,35.75564933,139.706381,1,0,0,1,0,0,0,0,1,1,0,1,
加賀中学校,131199,東京都,板橋区,東京都板橋区加賀2-19-1,35.76062703,139.716137,1,0,0,1,0,0,0,0,1,1,0,1,
弥生小学校,131199,東京都,板橋区,東京都板橋区弥生町19-1,35.75383721,139.6944891,0,0,0,1,0,0,0,0,0,0,0,0,
板橋第六小学校,131199,東京都,板橋区,東京都板橋区大山町13-1,35.74712412,139.7001539,1,0,0,1,0,0,0,0,0,0,0,0,
板橋第二中学校,131199,東京都,板橋区,東京都板橋区幸町26-1,35.7457612,139.6971552,1,0,0,1,0,0,0,0,1,1,0,1,
板橋第八小学校,131199,東京都,板橋区,東京都板橋区双葉町42-1,35.7598117,139.7005254,1,0,0,1,0,0,1,0,0,0,0,1,
板橋第十小学校,131199,東京都,板橋区,東京都板橋区大谷口上町43-1,35.74788683,139.6926055,1,0,0,1,0,0,0,0,1,1,0,1,
大谷口小学校,131199,東京都,板橋区,東京都板橋区大谷口北町21-1,35.75094343,139.6902156,1,0,0,1,0,0,0,0,1,1,0,1,
上板橋第二小学校,131199,東京都,板橋区,東京都板橋区小茂根1-14-1,35.74766553,139.6801996,1,1,0,1,0,0,1,0,0,0,0,0,
向原小学校,131199,東京都,板橋区,東京都板橋区向原2-34-1,35.74141028,139.6819757,1,0,0,1,0,0,0,0,0,0,0,0,
上板橋第二中学校,131199,東京都,板橋区,東京都板橋区小茂根1-2-1,35.74723659,139.6808295,1,0,0,1,0,0,0,0,0,0,0,1,
上板橋小学校,131199,東京都,板橋区,東京都板橋区東山町47-3,35.75522984,139.6863107,1,0,0,1,0,0,1,0,0,0,0,0,
桜川小学校,131199,東京都,板橋区,東京都板橋区東新町2-29-1,35.75511263,139.6782454,0,0,0,1,0,0,0,0,1,1,0,1,
桜川中学校,131199,東京都,板橋区,東京都板橋区桜川1-2-1,35.75611649,139.6771675,1,0,0,1,0,0,0,0,0,0,0,1,
常盤台小学校,131199,東京都,板橋区,東京都板橋区常盤台1-6-1,35.75955848,139.6911592,1,0,0,1,0,0,0,0,0,0,0,0,
上板橋第四小学校,131199,東京都,板橋区,東京都板橋区上板橋1-3-1,35.76145494,139.6788641,1,0,0,1,0,0,0,0,1,1,0,1,
上板橋第一中学校,131199,東京都,板橋区,東京都板橋区南常盤台1-1-1,35.75686179,139.6912633,0,0,0,1,0,0,0,0,0,0,0,1,
上板橋第三中学校,131199,東京都,板橋区,東京都板橋区常盤台3-30-1,35.76355079,139.6822468,1,0,0,1,0,0,0,0,0,0,0,0,
富士見台小学校,131199,東京都,板橋区,東京都板橋区前野町1-10-1,35.7639431,139.6952956,1,0,0,1,0,0,0,0,0,0,0,0,
北前野小学校,131199,東京都,板橋区,東京都板橋区前野町5-44-3,35.77312279,139.6851461,1,0,0,1,0,0,0,0,0,0,0,1,
前野小学校,131199,東京都,板橋区,東京都板橋区前野町6-40-1,35.76834539,139.6875191,1,1,0,1,0,0,1,0,1,0,0,1,
志村第一小学校,131199,東京都,板橋区,東京都板橋区泉町17-1,35.766339,139.7015,1,0,0,1,0,0,0,0,0,0,0,1,
志村第三小学校,131199,東京都,板橋区,東京都板橋区清水町83-1,35.76723799,139.7049067,1,0,0,1,0,0,0,0,0,0,0,1,
志村第一中学校,131199,東京都,板橋区,東京都板橋区大原町33-1,35.76714478,139.6969034,1,1,0,1,0,0,1,0,1,1,0,1,
志村第二小学校,131199,東京都,板橋区,東京都板橋区志村1-7-1,35.7725622,139.6977801,1,1,0,1,0,0,1,0,1,0,0,1,
志村小学校,131199,東京都,板橋区,東京都板橋区志村2-16-3,35.77531459,139.6866809,1,0,0,1,0,0,0,0,0,0,0,0,
志村第四小学校,131199,東京都,板橋区,東京都板橋区小豆沢4-13-1,35.78034541,139.7011415,1,1,0,1,0,0,1,0,1,0,0,1,
志村第二中学校,131199,東京都,板橋区,東京都板橋区小豆沢1-21-1,35.775486,139.7029095,1,0,0,1,0,0,0,0,1,1,0,1,
志村第四中学校,131199,東京都,板橋区,東京都板橋区志村3-15-1,35.77651438,139.6838911,1,0,0,1,0,0,0,0,0,0,0,1,
中台小学校,131199,東京都,板橋区,東京都板橋区中台1-9-7,35.76641044,139.6809638,1,0,0,1,0,0,0,0,0,0,0,0,
緑小学校,131199,東京都,板橋区,東京都板橋区中台3-27-1,35.77244672,139.6794946,1,0,0,1,0,0,0,0,0,0,0,1,
若木小学校,131199,東京都,板橋区,東京都板橋区若木1-14-1,35.76934696,139.6753861,1,1,0,1,0,0,1,0,1,1,0,1,
志村第五小学校,131199,東京都,板橋区,東京都板橋区西台3-38-23,35.77712889,139.6684994,1,1,0,1,0,0,1,0,1,1,0,1,
中台中学校,131199,東京都,板橋区,東京都板橋区中台1-56-23,35.76928209,139.6802507,1,1,0,1,0,0,1,0,1,0,0,1,
志村坂下小学校,131199,東京都,板橋区,東京都板橋区相生町26-14,35.77907099,139.6803153,1,0,0,1,0,0,0,0,1,1,0,1,
蓮根小学校,131199,東京都,板橋区,東京都板橋区蓮根3-10-1,35.78773692,139.6766103,0,0,0,1,0,0,0,0,0,0,0,1,
蓮根第二小学校,131199,東京都,板橋区,東京都板橋区蓮根3-15-5,35.78813191,139.6778321,0,0,0,1,0,0,0,0,0,0,0,0,
志村第六小学校,131199,東京都,板橋区,東京都板橋区坂下2-18-1,35.78374347,139.6806061,0,0,0,1,0,0,0,0,0,0,0,1,
志村第三中学校,131199,東京都,板橋区,東京都板橋区坂下2-21-1,35.78389254,139.6834948,0,0,0,1,0,0,0,0,1,1,0,1,
志村第五中学校,131199,東京都,板橋区,東京都板橋区坂下2-1-20,35.78237477,139.6858017,0,0,0,1,0,0,0,0,0,0,0,1,
舟渡小学校,131199,東京都,板橋区,東京都板橋区舟渡3-6-15,35.79360139,139.6816646,0,0,0,1,0,0,0,0,0,0,0,1,
下赤塚小学校,131199,東京都,板橋区,東京都板橋区赤塚6-14-1,35.77460049,139.6428567,1,0,0,1,0,0,0,0,1,1,0,1,
赤塚新町小学校,131199,東京都,板橋区,東京都板橋区赤塚新町3-31-1,35.7692619,139.6358695,1,0,0,1,0,0,0,0,0,0,0,0,
赤塚第三中学校,131199,東京都,板橋区,東京都板橋区赤塚7-27-15,35.77974006,139.64819,1,1,0,1,0,0,1,0,1,1,0,1,
成増小学校,131199,東京都,板橋区,東京都板橋区成増1-11-1,35.77434225,139.6326635,1,1,0,1,0,0,1,0,0,0,0,1,
成増ヶ丘小学校,131199,東京都,板橋区,東京都板橋区成増3-17-7,35.78095455,139.6343561,1,0,0,1,0,0,0,0,0,0,0,1,
赤塚小学校,131199,東京都,板橋区,東京都板橋区赤塚3-1-22,35.77793206,139.6406137,1,0,0,1,0,0,0,0,0,0,0,1,
三園小学校,131199,東京都,板橋区,東京都板橋区三園1-24-1,35.79040857,139.6375345,1,0,0,1,0,0,0,0,1,1,0,1,
赤塚第二中学校,131199,東京都,板橋区,東京都板橋区成増3-18-1,35.78052956,139.6329463,1,1,0,1,0,0,1,0,1,1,0,1,
徳丸小学校,131199,東京都,板橋区,東京都板橋区徳丸1-21-1,35.77174945,139.6666188,1,1,0,1,0,0,1,0,1,1,0,1,
北野小学校,131199,東京都,板橋区,東京都板橋区徳丸3-23-1,35.77160821,139.6570946,1,0,0,1,0,0,0,0,0,0,0,1,
紅梅小学校,131199,東京都,板橋区,東京都板橋区徳丸8-10-1,35.78123413,139.6574122,1,1,0,1,0,0,1,0,0,0,0,1,
赤塚第一中学校,131199,東京都,板橋区,東京都板橋区徳丸4-13-1,35.77168706,139.651991,1,0,0,1,0,0,0,0,1,1,0,1,
高島第六小学校,131199,東京都,板橋区,東京都板橋区高島平1-50-1,35.78433513,139.6703619,0,0,0,1,0,0,0,0,0,0,0,1,
高島第二小学校,131199,東京都,板橋区,東京都板橋区高島平2-25-1,35.78500483,139.6617036,1,0,0,1,0,0,0,0,0,0,0,0,
高島第五小学校,131199,東京都,板橋区,東京都板橋区高島平3-11-1,35.786866,139.657153,1,0,0,1,0,0,0,0,0,0,0,0,
高島第三小学校,131199,東京都,板橋区,東京都板橋区高島平4-21-1,35.78890807,139.6499245,1,0,0,1,0,0,0,0,0,0,0,0,
高島第一小学校,131199,東京都,板橋区,東京都板橋区高島平7-24-1,35.791924,139.6598155,0,0,0,1,0,0,0,0,0,0,0,0,
新河岸小学校,131199,東京都,板橋区,東京都板橋区新河岸1-3-1,35.79379992,139.66506,0,0,0,1,0,0,0,0,0,0,0,0,
西台中学校,131199,東京都,板橋区,東京都板橋区高島平1-4-1,35.78202343,139.6716649,1,0,0,1,0,0,0,0,1,1,0,1,
高島第二中学校,131199,東京都,板橋区,東京都板橋区高島平2-24-1,35.78532075,139.6603427,1,0,0,1,0,0,0,0,0,0,0,1,
高島第三中学校,131199,東京都,板橋区,東京都板橋区高島平4-22-1,35.78826617,139.6510964,1,0,0,1,0,0,0,0,0,0,0,1,
高島第一中学校,131199,東京都,板橋区,東京都板橋区高島平8-26-1,35.79189308,139.6630192,0,0,0,1,0,0,0,0,0,0,0,1,
文化会館,131199,東京都,板橋区,東京都板橋区大山東町51-1,35.74947,139.70436,1,0,0,0,0,0,0,0,1,0,0,0,
旧板橋第九小学校,131199,東京都,板橋区,東京都板橋区栄町6-1,35.75465,139.70427,1,0,0,1,0,0,0,0,1,0,0,0,
仲町ふれあい館,131199,東京都,板橋区,東京都板橋区仲町20-5,35.75124,139.69626,1,0,0,0,0,0,0,0,1,0,0,0,
旧板橋第四中学校,131199,東京都,板橋区,東京都板橋区富士見町3-1,35.76073,139.70123,1,0,0,1,0,0,0,0,0,0,0,0,
大原生涯学習センター,131199,東京都,板橋区,東京都板橋区大原町5-18,35.7697,139.70013,1,0,0,0,0,0,0,0,0,0,0,0,
小豆沢体育館,131199,東京都,板橋区,東京都板橋区小豆沢3-1-1,35.77842,139.69834,1,0,0,0,0,0,0,0,0,0,0,0,
志村コミュニティホール,131199,東京都,板橋区,東京都板橋区小豆沢1-8-1,35.77312,139.69998,1,0,0,0,0,0,0,0,0,0,0,0,
中台ふれあい館,131199,東京都,板橋区,東京都板橋区中台2-14-1,35.76991,139.68022,1,0,0,0,0,0,0,0,0,0,0,0,
赤塚体育館,131199,東京都,板橋区,東京都板橋区赤塚5-6-1,35.77787,139.64164,1,0,0,0,0,0,0,0,0,0,0,0,
成増アクトホール,131199,東京都,板橋区,東京都板橋区成増3-11-3-405,35.77837,139.63296,1,0,0,0,0,0,0,0,0,0,0,0,
成増生涯学習センター,131199,東京都,板橋区,東京都板橋区成増1-12-4,35.77471,139.63274,1,0,0,0,0,0,0,0,0,0,0,0,
徳丸ふれあい館,131199,東京都,板橋区,東京都板橋区徳丸2-12-12,35.77212,139.6605,1,0,0,0,0,0,0,0,0,0,0,0,
桐ヶ丘・赤羽台・西が丘地区,130001,東京都,,東京都北区赤羽北、赤羽台、赤羽西、桐ヶ丘、西が丘、東京都板橋区清水町,35.77736717,139.711233,0,0,0,0,0,1,0,0,0,0,0,0,
浮間公園・荒川河川敷緑地一帯,130001,東京都,,東京都北区浮間、板橋区新河岸、舟渡,35.79819724,139.6700518,0,0,0,0,0,1,0,0,0,0,0,0,
高島平二・三丁目地区,130001,東京都,,東京都板橋区高島平,35.78751238,139.6555111,0,0,0,0,0,1,0,0,0,0,0,0,
東京家政大学・加賀中学校一帯,130001,東京都,,東京都北区上十条、十条台、板橋区加賀,35.75535675,139.7207898,0,0,0,0,0,1,0,0,0,0,0,0,
公社向原住宅一帯,130001,東京都,,東京都板橋区小茂根、向原,35.7461768,139.682604,0,0,0,0,0,1,0,0,0,0,0,0,
城北中央公園一帯,130001,東京都,,東京都板橋区小茂根、桜川、東新町、練馬区羽沢、氷川台,35.7562234,139.6740657,0,0,0,0,0,1,0,0,0,0,0,0,
光が丘団地・光が丘公園一帯,130001,東京都,,東京都板橋区赤塚新町、練馬区旭町、光が丘,35.76202167,139.631415,0,0,0,0,0,1,0,0,0,0,0,0,
中台三丁目地区,130001,東京都,,東京都板橋区中台,35.7737549,139.6803,0,0,0,0,0,1,0,0,0,0,0,0,
都営幸町アパート一帯,130001,東京都,,東京都板橋区大山西町、幸町,35.74554911,139.6962964,0,0,0,0,0,1,0,0,0,0,0,0,
新河岸東公園一帯,130001,東京都,,東京都北区浮間、板橋区舟渡,35.795124,139.656246,0,0,0,0,0,1,0,0,0,0,0,0,
城北公園一帯,130001,東京都,,東京都板橋区坂下,35.783581,139.681588,0,0,0,0,0,1,0,0,0,0,0,0,
都営成増五丁目第2アパート一帯,130001,東京都,,東京都板橋区成増,35.788033,139.632769,0,0,0,0,0,1,0,0,0,0,0,0,
南町小学校,131202,東京都,練馬区,東京都練馬区練馬2-7-5,35.740828,139.65313,1,0,0,1,0,1,1,0,0,0,0,1,
開進第三小学校,131202,東京都,練馬区,東京都練馬区桜台2-18-1,35.742792,139.666528,1,0,0,1,0,1,1,0,0,1,0,1,
開進第二小学校,131202,東京都,練馬区,東京都練馬区桜台5-10-5,35.742059,139.658421,1,0,0,1,0,1,1,0,0,1,0,0,
開進第四小学校,131202,東京都,練馬区,東京都練馬区羽沢2-33-1,35.74776,139.671999,1,0,0,1,0,1,1,0,0,1,0,1,
小竹小学校,131202,東京都,練馬区,東京都練馬区小竹町2-6-7,35.744065,139.679803,1,0,0,1,0,1,1,0,0,1,0,1,
旭丘小学校,131202,東京都,練馬区,東京都練馬区旭丘2-21-1,35.736698,139.676903,1,0,0,1,0,1,1,0,0,1,0,1,
豊玉第二小学校,131202,東京都,練馬区,東京都練馬区豊玉上2-16-1,35.737444,139.662044,1,0,0,1,0,1,1,0,0,1,0,1,
豊玉東小学校,131202,東京都,練馬区,東京都練馬区豊玉北1-16-1,35.732703,139.667734,1,0,0,1,0,1,1,0,0,1,0,1,
豊玉小学校,131202,東京都,練馬区,東京都練馬区豊玉中4-2-20,35.732857,139.651502,1,0,0,1,0,1,1,0,0,1,0,1,
豊玉南小学校,131202,東京都,練馬区,東京都練馬区豊玉南2-14-1,35.727823,139.65639,1,0,0,1,0,1,1,0,1,1,1,1,
練馬第三小学校,131202,東京都,練馬区,東京都練馬区貫井1-36-15,35.737233,139.635377,1,0,0,1,0,1,1,0,0,1,0,1,
練馬第二小学校,131202,東京都,練馬区,東京都練馬区貫井2-31-13,35.741675,139.633979,1,0,0,1,0,1,1,0,0,1,0,1,
向山小学校,131202,東京都,練馬区,東京都練馬区向山2-14-11,35.740039,139.640685,1,0,0,1,0,1,1,0,0,1,0,1,
中村西小学校,131202,東京都,練馬区,東京都練馬区中村北4-17-1,35.73428,139.635432,1,0,0,1,0,1,1,0,0,0,0,1,
中村小学校,131202,東京都,練馬区,東京都練馬区中村2-8-1,35.73121,139.644028,1,0,0,1,0,1,1,0,0,1,0,1,
泉新小学校,131202,東京都,練馬区,東京都練馬区三原台3-18-30,35.754334,139.601511,1,0,0,1,0,1,1,0,0,1,0,1,
谷原小学校,131202,東京都,練馬区,東京都練馬区谷原2-9-26,35.750759,139.614057,1,0,0,1,0,1,1,0,1,1,1,1,自動ドア
北原小学校,131202,東京都,練馬区,東京都練馬区谷原4-9-1,35.754628,139.613357,1,0,0,1,0,1,1,0,0,1,0,1,
富士見台小学校,131202,東京都,練馬区,東京都練馬区富士見台4-16-10,35.744936,139.623281,1,0,0,1,0,1,1,0,0,1,0,1,
南が丘小学校,131202,東京都,練馬区,東京都練馬区南田中2-13-1,35.733781,139.617109,1,0,0,1,0,1,1,0,0,0,0,1,
石神井東小学校,131202,東京都,練馬区,東京都練馬区南田中3-9-1,35.737464,139.619925,1,0,0,1,0,1,1,0,0,1,0,1,
南田中小学校,131202,東京都,練馬区,東京都練馬区南田中5-15-37,35.737038,139.61108,1,1,0,1,0,1,1,0,0,1,0,1,
光和小学校,131202,東京都,練馬区,東京都練馬区石神井町2-16-34,35.746343,139.607261,1,0,0,1,0,1,1,0,1,1,0,1,自動ドア
下石神井小学校,131202,東京都,練馬区,東京都練馬区下石神井2-20-18,35.731789,139.605468,1,0,0,1,0,1,1,0,1,1,1,1,自動ドア
上石神井小学校,131202,東京都,練馬区,東京都練馬区上石神井4-10-9,35.727834,139.5891,1,0,0,1,0,1,1,0,0,1,0,1,
石神井小学校,131202,東京都,練馬区,東京都練馬区石神井台1-1-25,35.735684,139.599113,0,0,0,1,0,1,0,0,1,1,1,1,
上石神井北小学校,131202,東京都,練馬区,東京都練馬区石神井台5-1-32,35.735833,139.588341,1,0,0,1,0,1,1,0,0,0,0,1,
石神井台小学校,131202,東京都,練馬区,東京都練馬区石神井台8-6-33,35.735335,139.581085,1,0,0,1,0,1,1,0,0,0,0,1,
石神井西小学校,131202,東京都,練馬区,東京都練馬区関町北1-1-5,35.723943,139.580315,1,0,0,1,0,1,1,0,0,0,0,1,
関町小学校,131202,東京都,練馬区,東京都練馬区関町北3-23-34,35.724978,139.571793,1,0,0,1,0,1,1,0,0,1,0,1,
関町北小学校,131202,東京都,練馬区,東京都練馬区関町北5-13-40,35.732588,139.573734,1,0,0,1,0,1,1,0,1,1,0,1,
立野小学校,131202,東京都,練馬区,東京都練馬区立野町17-13,35.718321,139.58082,1,0,0,1,0,1,1,0,0,1,0,1,
大泉第三小学校,131202,東京都,練馬区,東京都練馬区大泉学園町3-22-1,35.763612,139.579744,1,0,0,1,0,1,1,0,0,1,0,1,
大泉学園小学校,131202,東京都,練馬区,東京都練馬区大泉学園町4-7-1,35.765693,139.593378,1,0,0,1,0,1,1,0,0,0,0,1,
大泉学園緑小学校,131202,東京都,練馬区,東京都練馬区大泉学園町5-11-47,35.766396,139.585471,1,0,0,1,0,1,1,0,0,1,0,1,
大泉学園桜小学校,131202,東京都,練馬区,東京都練馬区大泉学園町9-2-2,35.777431,139.590966,1,0,0,1,0,1,1,0,0,1,0,1,
橋戸小学校,131202,東京都,練馬区,東京都練馬区大泉町2-11-25,35.759008,139.602567,1,0,0,1,0,1,1,0,0,1,0,1,
大泉第一小学校,131202,東京都,練馬区,東京都練馬区大泉町3-16-23,35.765818,139.599183,1,0,0,1,0,1,1,0,0,1,0,1,
大泉北小学校,131202,東京都,練馬区,東京都練馬区大泉町4-28-22,35.762224,139.595937,1,0,0,1,0,1,1,0,0,0,0,1,
大泉東小学校,131202,東京都,練馬区,東京都練馬区東大泉1-22-1,35.748631,139.591233,1,0,0,1,0,1,1,0,1,1,1,1,
大泉小学校,131202,東京都,練馬区,東京都練馬区東大泉4-25-1,35.752139,139.58436,1,0,0,1,0,1,1,0,0,0,0,1,
大泉南小学校,131202,東京都,練馬区,東京都練馬区東大泉6-28-1,35.744998,139.580955,1,0,0,1,0,1,1,0,0,0,0,0,
大泉第二小学校,131202,東京都,練馬区,東京都練馬区南大泉4-29-11,35.744542,139.573028,1,0,0,1,0,1,1,0,0,1,0,1,
大泉第六小学校,131202,東京都,練馬区,東京都練馬区南大泉5-25-29,35.751362,139.571734,1,0,0,1,0,1,1,0,0,1,0,1,
大泉第四小学校,131202,東京都,練馬区,東京都練馬区西大泉1-24-1,35.755852,139.573514,0,0,0,1,0,1,0,0,0,1,0,1,
大泉西小学校,131202,東京都,練馬区,東京都練馬区西大泉4-25-1,35.765273,139.571783,1,0,0,1,0,1,1,0,0,1,0,1,
旭町小学校,131202,東京都,練馬区,東京都練馬区旭町2-29-1,35.773246,139.627619,1,1,0,1,0,1,1,0,0,0,0,1,
光が丘第八小学校,131202,東京都,練馬区,東京都練馬区光が丘1-4-1,35.768397,139.637335,1,0,0,1,0,1,1,0,0,0,0,1,
光が丘秋の陽小学校,131202,東京都,練馬区,東京都練馬区光が丘2-1-1,35.761367,139.63488,0,0,0,1,0,1,0,0,0,1,0,1,
光が丘夏の雲小学校,131202,東京都,練馬区,東京都練馬区光が丘3-6-1,35.75739,139.631498,1,0,0,1,0,1,1,0,0,1,0,1,
光が丘春の風小学校,131202,東京都,練馬区,東京都練馬区光が丘7-2-1,35.755579,139.626023,1,0,0,1,0,1,1,0,0,1,0,1,
田柄第二小学校,131202,東京都,練馬区,東京都練馬区田柄1-5-27,35.759204,139.642533,1,0,0,1,0,1,1,0,0,1,0,1,
田柄小学校,131202,東京都,練馬区,東京都練馬区田柄2-19-19,35.766145,139.643868,1,0,0,1,0,1,1,0,0,0,0,1,
練馬東小学校,131202,東京都,練馬区,東京都練馬区春日町1-30-11,35.752206,139.647477,1,0,0,1,0,1,1,0,0,1,0,1,
春日小学校,131202,東京都,練馬区,東京都練馬区春日町5-12-1,35.746688,139.639892,1,0,0,1,0,1,1,0,0,1,0,1,
練馬小学校,131202,東京都,練馬区,東京都練馬区春日町6-11-36,35.752575,139.636029,1,0,0,1,0,1,1,0,0,1,0,1,
高松小学校,131202,東京都,練馬区,東京都練馬区高松3-16-1,35.749603,139.626646,1,0,0,1,0,1,1,0,0,1,0,1,
光が丘四季の香小学校,131202,東京都,練馬区,東京都練馬区高松5-24-1,35.76155,139.6244,1,0,0,1,0,1,1,0,0,1,0,1,
豊溪小学校,131202,東京都,練馬区,東京都練馬区土支田2-26-28,35.763147,139.615423,1,0,0,1,0,1,1,0,0,0,0,1,
八坂小学校,131202,東京都,練馬区,東京都練馬区土支田4-48-1,35.768838,139.611351,0,0,0,1,0,1,0,0,0,0,0,1,
北町小学校,131202,東京都,練馬区,東京都練馬区北町1-14-11,35.765373,139.664239,0,0,0,1,0,1,0,0,0,1,0,1,
北町西小学校,131202,東京都,練馬区,東京都練馬区北町7-3-8,35.761468,139.653779,1,0,0,1,0,1,1,0,0,1,0,1,
仲町小学校,131202,東京都,練馬区,東京都練馬区氷川台2-18-24,35.758124,139.667528,0,0,0,1,0,1,0,0,0,0,0,0,
開進第一小学校,131202,東京都,練馬区,東京都練馬区早宮2-1-31,35.754683,139.657546,1,0,0,1,0,1,1,0,0,1,0,1,
早宮小学校,131202,東京都,練馬区,東京都練馬区早宮4-10-17,35.752246,139.650968,1,0,0,1,0,1,1,0,0,1,0,1,
開進第二中学校,131202,東京都,練馬区,東京都練馬区練馬2-27-28,35.743394,139.653034,1,0,0,1,0,1,1,0,0,0,0,1,
開進第三中学校,131202,東京都,練馬区,東京都練馬区桜台3-28-1,35.745763,139.664997,1,1,0,1,0,1,1,0,1,1,0,1,
開進第四中学校,131202,東京都,練馬区,東京都練馬区羽沢3-24-1,35.75098,139.67348,0,0,0,1,0,1,0,0,1,1,1,1,
旭丘中学校,131202,東京都,練馬区,東京都練馬区旭丘2-40-1,35.737807,139.677591,1,0,0,1,0,1,1,0,0,1,0,1,
豊玉第二中学校,131202,東京都,練馬区,東京都練馬区豊玉北2-24-5,35.735304,139.664592,1,0,0,1,0,1,1,0,1,1,1,1,
豊玉中学校,131202,東京都,練馬区,東京都練馬区豊玉南2-1-20,35.729252,139.65791,1,0,0,1,0,1,1,0,0,1,0,1,
貫井中学校,131202,東京都,練馬区,東京都練馬区貫井2-14-13,35.739811,139.633051,1,0,0,1,0,1,1,0,0,1,0,1,
中村中学校,131202,東京都,練馬区,東京都練馬区中村南1-32-21,35.728257,139.645386,1,0,0,1,0,1,1,0,0,1,0,1,
三原台中学校,131202,東京都,練馬区,東京都練馬区三原台3-13-41,35.754675,139.600292,1,0,0,1,0,1,1,0,0,1,0,1,
谷原中学校,131202,東京都,練馬区,東京都練馬区谷原4-10-5,35.754915,139.614946,1,0,0,1,0,1,1,0,0,1,0,1,
石神井東中学校,131202,東京都,練馬区,東京都練馬区高野台1-8-34,35.742461,139.616847,1,0,0,1,0,1,1,0,0,1,0,1,
南が丘中学校,131202,東京都,練馬区,東京都練馬区南田中4-8-23,35.734031,139.613022,1,0,0,1,0,1,1,0,0,0,0,1,
石神井南中学校,131202,東京都,練馬区,東京都練馬区下石神井2-7-23,35.730429,139.608867,1,0,0,1,0,1,1,0,0,1,0,1,
上石神井中学校,131202,東京都,練馬区,東京都練馬区上石神井4-15-27,35.728532,139.588192,1,0,0,1,0,1,1,0,0,1,0,1,
石神井中学校,131202,東京都,練馬区,東京都練馬区石神井台1-32-1,35.741202,139.595876,1,0,0,1,0,1,1,0,0,1,0,1,
関中学校,131202,東京都,練馬区,東京都練馬区関町北4-34-23,35.730841,139.57536,1,0,0,1,0,1,1,0,0,1,0,1,
石神井西中学校,131202,東京都,練馬区,東京都練馬区関町南3-10-3,35.720654,139.580673,1,0,0,1,0,1,1,0,0,1,0,1,
大泉学園中学校,131202,東京都,練馬区,東京都練馬区大泉学園町4-17-32,35.766704,139.589818,1,0,0,1,0,1,1,0,0,0,0,1,
大泉学園桜中学校,131202,東京都,練馬区,東京都練馬区大泉学園町9-2-1,35.777469,139.590962,1,0,0,1,0,1,1,0,0,0,0,1,
大泉北中学校,131202,東京都,練馬区,東京都練馬区大泉町5-4-32,35.75955,139.596223,1,0,0,1,0,1,1,0,0,1,0,1,
大泉中学校,131202,東京都,練馬区,東京都練馬区東大泉4-27-35,35.752708,139.585471,1,0,0,1,0,1,1,0,0,1,0,1,
大泉第二中学校,131202,東京都,練馬区,東京都練馬区東大泉6-21-1,35.744626,139.584553,1,0,0,1,0,1,1,0,0,0,0,1,
大泉西中学校,131202,東京都,練馬区,東京都練馬区西大泉3-19-27,35.75841,139.579894,1,0,0,1,0,1,1,0,1,1,1,1,
豊渓中学校,131202,東京都,練馬区,東京都練馬区旭町3-5-10,35.774252,139.627804,1,0,0,1,0,1,1,0,0,1,0,1,
光が丘第三中学校,131202,東京都,練馬区,東京都練馬区光が丘3-2-1,35.75494,139.631428,1,0,0,1,0,1,1,0,1,1,0,1,
光が丘第一中学校,131202,東京都,練馬区,東京都練馬区光が丘6-5-1,35.759917,139.622487,1,0,0,1,0,1,1,0,0,1,0,1,
光が丘第二中学校,131202,東京都,練馬区,東京都練馬区光が丘7-1-1,35.754479,139.625965,1,0,0,1,0,1,1,0,0,1,0,1,
田柄中学校,131202,東京都,練馬区,東京都練馬区田柄3-3-1,35.759294,139.641539,1,0,0,1,0,1,1,0,0,1,0,1,
練馬東中学校,131202,東京都,練馬区,東京都練馬区春日町2-14-22,35.757044,139.647824,1,0,0,1,0,1,1,0,0,1,0,1,
練馬中学校,131202,東京都,練馬区,東京都練馬区高松1-24-1,35.747869,139.635086,1,0,0,1,0,1,1,0,0,1,0,1,
八坂中学校,131202,東京都,練馬区,東京都練馬区土支田4-47-21,35.769727,139.612104,0,0,0,1,0,1,0,0,0,1,0,1,
北町中学校,131202,東京都,練馬区,東京都練馬区北町3-1-34,35.767228,139.657067,0,0,0,1,0,1,0,0,0,1,0,1,
開進第一中学校,131202,東京都,練馬区,東京都練馬区早宮1-16-50,35.752544,139.659062,1,0,0,1,0,1,1,0,0,1,0,1,
旭丘地域集会所,131202,東京都,練馬区,東京都練馬区旭丘1-58-10,35.734824,139.67417,1,0,0,0,0,0,1,0,0,1,1,0,可動式スロープ
小竹地域集会所,131202,東京都,練馬区,東京都練馬区小竹町1-63-2,35.738783,139.673457,1,0,0,0,0,0,1,0,1,1,1,1,
栄町敬老館,131202,東京都,練馬区,東京都練馬区栄町40-7,35.739428,139.671347,1,0,0,0,0,0,1,0,0,0,0,0,
豊玉北地区区民館,131202,東京都,練馬区,東京都練馬区豊玉北3-7-9,35.732686,139.661352,1,0,0,0,0,0,1,0,1,0,0,0,
中村敬老館,131202,東京都,練馬区,東京都練馬区中村2-25-3,35.731796,139.642214,1,0,0,0,0,0,1,0,1,1,0,0,
中村地域集会所,131202,東京都,練馬区,東京都練馬区中村南2-23-12,35.729793,139.642739,1,0,0,0,0,0,1,0,0,1,1,1,可動式スロープ
桜台地域集会所,131202,東京都,練馬区,東京都練馬区桜台1-22-9,35.739129,139.666689,1,0,0,0,0,0,1,0,1,1,0,0,可動式スロープ
桜台地区区民館,131202,東京都,練馬区,東京都練馬区桜台3-39-17,35.745882,139.663099,1,1,0,0,0,0,1,0,1,0,1,1,
厚生文化会館,131202,東京都,練馬区,東京都練馬区練馬4-2-3,35.740276,139.650222,1,0,0,0,0,0,1,0,1,0,1,1,
向山庭園,131202,東京都,練馬区,東京都練馬区向山3-1-21,35.742036,139.646684,1,0,0,0,0,0,1,0,1,0,0,1,
向山地域集会所,131202,東京都,練馬区,東京都練馬区向山4-21-12,35.743575,139.638597,1,0,0,0,0,0,1,0,1,1,1,1,可動式スロープ
貫井地区区民館,131202,東京都,練馬区,東京都練馬区貫井1-9-1,35.738094,139.635565,1,0,0,0,0,0,1,0,1,1,1,1,
氷川台地区区民館,131202,東京都,練馬区,東京都練馬区氷川台2-16-14,35.756932,139.667231,1,0,0,0,0,0,1,0,1,0,0,1,
早宮地域集会所,131202,東京都,練馬区,東京都練馬区早宮1-44-19,35.754221,139.658802,1,0,0,0,0,0,1,0,1,1,1,1,可動式スロープ
早宮地区区民館,131202,東京都,練馬区,東京都練馬区早宮4-14-5,35.750783,139.651266,1,0,0,0,0,0,1,0,1,0,1,1,
春日町敬老館,131202,東京都,練馬区,東京都練馬区春日町2-28-3,35.757087,139.646352,1,0,0,0,0,0,1,0,0,0,0,0,
春日町南地区区民館,131202,東京都,練馬区,東京都練馬区春日町5-20-25,35.747711,139.638554,1,0,0,0,0,0,1,0,0,1,0,1,
春日町地域集会所,131202,東京都,練馬区,東京都練馬区春日町5-30-1,35.750613,139.639464,1,0,0,0,0,0,1,0,0,1,0,0,可動式スロープ
高松地区区民館,131202,東京都,練馬区,東京都練馬区高松3-24-27,35.750032,139.625393,1,0,0,0,0,0,1,0,1,1,1,1,
旭町南地区区民館,131202,東京都,練馬区,東京都練馬区高松5-23-15,35.762918,139.625053,1,0,0,0,0,0,1,0,1,0,0,1,
北町地区区民館,131202,東京都,練馬区,東京都練馬区北町2-26-1,35.767611,139.66038,1,0,0,0,0,0,1,0,1,0,1,1,
北町第二地区区民館,131202,東京都,練馬区,東京都練馬区北町6-24-101,35.761246,139.655462,1,0,0,0,0,0,1,0,1,0,0,1,
北町地域集会所,131202,東京都,練馬区,東京都練馬区北町8-28-10,35.76772,139.649654,1,0,0,0,0,0,1,0,0,1,1,1,
光が丘区民センター,131202,東京都,練馬区,東京都練馬区光が丘2-9-6,35.759404,139.62983,1,0,0,0,0,0,1,0,1,0,1,1,
旭町北地区区民館,131202,東京都,練馬区,東京都練馬区旭町2-30-16,35.773237,139.628784,1,0,0,0,0,0,1,0,0,1,1,1,
旭町地域集会所,131202,東京都,練馬区,東京都練馬区旭町3-11-6,35.774363,139.624908,1,1,0,0,0,0,1,0,1,0,0,1,
土支田中央地域集会所,131202,東京都,練馬区,東京都練馬区土支田2-32-8,35.763401,139.613643,1,1,0,0,0,0,1,0,0,1,1,0,可動式スロープ・階段昇降機
土支田地域集会所,131202,東京都,練馬区,東京都練馬区土支田2-40-21,35.764295,139.611643,1,1,0,0,0,0,1,0,0,1,0,1,可動式スロープ
富士見台地区区民館,131202,東京都,練馬区,東京都練馬区富士見台3-10-1,35.738614,139.62446,1,0,0,0,0,0,1,0,0,1,1,1,
南田中地域集会所,131202,東京都,練馬区,東京都練馬区南田中2-18-36,35.733257,139.616861,1,0,0,0,0,0,1,0,0,1,1,1,可動式スロープ
南田中敬老館,131202,東京都,練馬区,東京都練馬区南田中5-15-25,35.737836,139.611517,1,1,0,0,0,0,1,0,0,0,0,0,
高野台敬老館,131202,東京都,練馬区,東京都練馬区高野台2-25-1,35.748003,139.621123,1,0,0,0,0,0,1,0,1,0,0,0,
高野台地域集会所,131202,東京都,練馬区,東京都練馬区高野台3-28-11,35.745674,139.611882,1,0,0,0,0,0,1,0,0,1,1,1,可動式スロープ
谷原地域集会所,131202,東京都,練馬区,東京都練馬区谷原5-6-7,35.751405,139.612957,1,0,0,0,0,0,1,0,0,1,1,1,可動式スロープ
三原台敬老館,131202,東京都,練馬区,東京都練馬区三原台2-11-29,35.757236,139.606475,1,0,0,0,0,0,1,0,0,0,0,0,
三原台地域集会所,131202,東京都,練馬区,東京都練馬区三原台3-13-17,35.753942,139.599377,1,0,0,0,0,0,1,0,0,1,1,1,可動式スロープ
石神井敬老館,131202,東京都,練馬区,東京都練馬区石神井町7-28-21,35.744787,139.598284,1,0,0,0,0,0,1,0,0,0,1,0,
男女共同参画センターえーる,131202,東京都,練馬区,東京都練馬区石神井町8-1-10,35.745281,139.601592,1,0,0,0,0,0,1,0,1,0,1,1,
石神井台みどり地域集会所,131202,東京都,練馬区,東京都練馬区石神井台2-13-6,35.736533,139.592041,1,0,0,0,0,0,1,0,0,1,1,1,
石神井台敬老館,131202,東京都,練馬区,東京都練馬区石神井台2-18-13,35.735434,139.589635,1,0,0,0,0,0,1,0,1,0,1,1,
上石神井南地域集会所,131202,東京都,練馬区,東京都練馬区上石神井1-6-16,35.725262,139.592463,1,0,0,0,0,0,1,0,1,0,0,1,
上石神井北地域集会所,131202,東京都,練馬区,東京都練馬区上石神井2-36-18,35.72923,139.592339,1,0,0,0,0,0,1,0,0,1,1,1,可動式スロープ
下石神井地区区民館,131202,東京都,練馬区,東京都練馬区下石神井6-8-15,35.733872,139.60355,1,0,0,0,0,0,1,0,1,0,1,1,
東大泉中央地域集会所,131202,東京都,練馬区,東京都練馬区東大泉3-18-9,35.751561,139.586692,1,0,0,0,0,0,1,0,1,0,0,1,
東大泉地区区民館,131202,東京都,練馬区,東京都練馬区東大泉3-53-1,35.755918,139.587925,1,0,0,0,0,0,1,0,0,1,0,1,
勤労福祉会館,131202,東京都,練馬区,東京都練馬区東大泉5-40-36,35.748165,139.587669,1,0,0,0,0,0,1,0,0,0,1,1,
東大泉敬老館,131202,東京都,練馬区,東京都練馬区東大泉7-20-1,35.74234,139.5774,1,0,0,0,0,0,1,0,1,1,0,1,
東大泉地域集会所,131202,東京都,練馬区,東京都練馬区東大泉7-27-51,35.743498,139.580394,1,0,0,0,0,0,1,0,0,1,1,1,
西大泉敬老館,131202,東京都,練馬区,東京都練馬区西大泉3-21-16,35.759538,139.578933,1,0,0,0,0,0,1,0,1,0,1,1,
西大泉地区区民館,131202,東京都,練馬区,東京都練馬区西大泉5-3-32,35.76006,139.572503,1,0,0,0,0,0,1,0,0,1,0,1,
南大泉地区区民館,131202,東京都,練馬区,東京都練馬区南大泉2-19-26,35.739123,139.570492,1,0,0,0,0,0,1,0,0,1,0,1,
南大泉地域集会所,131202,東京都,練馬区,東京都練馬区南大泉5-26-19,35.751167,139.573547,1,0,0,0,0,0,1,0,1,1,0,1,
大泉北地域集会所,131202,東京都,練馬区,東京都練馬区大泉学園町4-21-1,35.765632,139.588465,1,0,0,0,0,0,1,0,1,0,0,1,
大泉学園町地域集会所,131202,東京都,練馬区,東京都練馬区大泉学園町6-20-36,35.771389,139.583174,1,0,0,0,0,0,1,0,0,1,0,1,可動式スロープ
大泉学園地区区民館,131202,東京都,練馬区,東京都練馬区大泉学園町8-9-5,35.772787,139.592845,1,0,0,0,0,0,1,0,0,0,0,0,
北大泉地区区民館,131202,東京都,練馬区,東京都練馬区大泉町2-41-26,35.764722,139.604056,1,0,0,0,0,0,1,0,0,1,0,1,
大泉町地域集会所,131202,東京都,練馬区,東京都練馬区大泉町4-35-17,35.763835,139.595784,1,0,0,0,0,0,1,0,0,1,1,1,
関区民センター,131202,東京都,練馬区,東京都練馬区関町北1-7-2,35.724524,139.577697,1,1,0,0,0,0,1,0,1,0,1,1,
関町北地区区民館,131202,東京都,練馬区,東京都練馬区関町北4-12-21,35.729801,139.577307,1,0,0,0,0,0,1,0,0,1,0,1,
関町地域集会所,131202,東京都,練馬区,東京都練馬区関町南4-22-1,35.72142,139.567751,1,0,0,0,0,0,1,0,1,1,1,1,
立野地区区民館,131202,東京都,練馬区,東京都練馬区立野町15-42,35.718608,139.582517,1,0,0,0,0,0,1,0,0,0,0,1,
練馬高野台駅前地域集会所,131202,東京都,練馬区,東京都練馬区高野台1-7-29,35.741038,139.616274,1,0,0,0,0,0,1,0,1,0,1,1,
豊玉地域集会所,131202,東京都,練馬区,東京都練馬区豊玉中4-13-6,35.732618,139.650867,1,0,0,0,0,0,1,0,1,0,1,1,
練馬区役所,131202,東京都,練馬区,東京都練馬区豊玉北6-12-1,35.73567,139.65171,1,0,0,0,0,0,1,0,1,1,1,1,
防災学習センター,131202,東京都,練馬区,東京都練馬区光が丘6-4-1,35.76008,139.62327,1,0,0,0,0,0,1,0,1,1,1,1,
上井草スポーツセンター一帯,130001,東京都,,東京都杉並区今川、上井草、東京都練馬区下石神井,35.72279821,139.6014323,0,0,0,0,0,1,0,0,0,0,0,0,
城北中央公園一帯,130001,東京都,,東京都板橋区小茂根、桜川、東新町、練馬区羽沢、氷川台,35.7562234,139.6740657,0,0,0,0,0,1,0,0,0,0,0,0,
光が丘団地・光が丘公園一帯,130001,東京都,,東京都板橋区赤塚新町、練馬区旭町、光が丘,35.76202167,139.631415,0,0,0,0,0,1,0,0,0,0,0,0,
石神井公園一帯,130001,東京都,,東京都練馬区石神井台、石神井町,35.73877529,139.596925,0,0,0,0,0,1,0,0,0,0,0,0,
上石神井アパート一帯,130001,東京都,,東京都練馬区上石神井、石神井台、関町東,35.73060788,139.5845374,0,0,0,0,0,1,0,0,0,0,0,0,
大泉中央公園一帯,130001,東京都,,東京都練馬区大泉学園町,35.77569225,139.5965875,0,0,0,0,0,1,0,0,0,0,0,0,
武蔵大学,130001,東京都,,東京都練馬区豊玉上,35.73672593,139.667172,0,0,0,0,0,1,0,0,0,0,0,0,
豊島園,130001,東京都,,東京都練馬区向山、春日町,35.74498188,139.6447227,0,0,0,0,0,1,0,0,0,0,0,0,
都営南田中アパート,130001,東京都,,東京都練馬区石神井町、高野台、南田中,35.73924886,139.6134365,0,0,0,0,0,1,0,0,0,0,0,0,
練馬総合運動場一帯,130001,東京都,,東京都練馬区練馬,35.74295464,139.6532525,0,0,0,0,0,1,0,0,0,0,0,0,
舎人公園一帯,130001,東京都,,東京都足立区入谷町、古千谷、皿沼、舎人町、舎人公園、西伊興町、西伊興,35.79759349,139.7701078,0,0,0,1,0,1,0,0,0,0,0,0,
東綾瀬団地一帯,130001,東京都,,東京都足立区東綾瀬,35.76933991,139.8330816,0,0,0,1,0,1,0,0,0,0,0,0,
荒川北岸・河川敷緑地一帯,130001,東京都,,東京都足立区足立、梅田、扇、江北、鹿浜、関原、堀之内、本木、本木西、本木南,35.75842028,139.7780372,0,0,0,1,0,1,0,0,0,0,0,0,
荒川南岸・河川敷緑地一帯,130001,東京都,,東京都足立区小台、千住、千住大川町、千住元町、千住桜木,35.75576367,139.7759275,0,0,0,1,0,1,0,0,0,0,0,0,
江北六丁目団地一帯,130001,東京都,,東京都足立区江北,35.78067406,139.7661265,0,0,0,1,0,1,0,0,0,0,0,0,
花畑団地一帯,130001,東京都,,東京都足立区花畑,35.80690328,139.8103645,0,0,0,1,0,1,0,0,0,0,0,0,
中川公園一帯・大谷田団地一帯,130001,東京都,,東京都足立区大谷田、中川,35.77545287,139.8464623,0,0,0,1,0,1,0,0,0,0,0,0,
千寿第八小学校一帯,130001,東京都,,東京都足立区千住曙町、千住関屋町,35.74278403,139.8109235,0,0,0,1,0,1,0,0,0,0,0,0,
都立江北高校一帯,130001,東京都,,東京都足立区弘道、西綾瀬,35.76668435,139.819813,0,0,0,1,0,1,0,0,0,0,0,0,
竹の塚第一団地一帯,130001,東京都,,東京都足立区竹の塚,35.79206928,139.800522,0,0,0,1,0,1,0,0,0,0,0,0,
都営西保木間四丁目アパート一帯,130001,東京都,,東京都足立区竹の塚、西保木間,35.8041292,139.7965017,0,0,0,1,0,1,0,0,0,0,0,0,
フレール西新井中央公園一帯,130001,東京都,,東京都足立区西新井,35.78846573,139.7795346,0,0,0,1,0,1,0,0,0,0,0,0,
江北平成公園一帯,130001,東京都,,東京都足立区江北,35.77413374,139.7649377,0,0,0,1,0,1,0,0,0,0,0,0,
都営保木間第５アパート一帯,130001,東京都,,東京都足立区南花畑,35.7963486,139.8123474,0,0,0,1,0,1,0,0,0,0,0,0,
総合スポーツセンター一帯,130001,東京都,,東京都足立区東保木間,35.79100039,139.8139583,0,0,0,1,0,1,0,0,0,0,0,0,
区立中川北小学校・都営六ツ木町アパート一帯,130001,東京都,,東京都足立区六木,35.78970808,139.8393174,0,0,0,1,0,1,0,0,0,0,0,0,
区立辰沼小学校・都営辰沼町アパート一帯,130001,東京都,,東京都足立区辰沼、谷中,35.78352967,139.835372,0,0,0,1,0,1,0,0,0,0,0,0,
区立青井小中学校・都営青井三丁目アパート一帯,130001,東京都,,東京都足立区青井,35.77207792,139.820081,0,0,0,1,0,1,0,0,0,0,0,0,
栗原団地一帯,130001,東京都,,東京都足立区栗原,35.78313177,139.7885985,0,0,0,1,0,1,0,0,0,0,0,0,
竹の塚小学校一帯,130001,東京都,,東京都足立区竹の塚、六月,35.78939792,139.7900234,0,0,0,1,0,1,0,0,0,0,0,0,
竹ノ塚駅東口・竹の塚センター一帯,130001,東京都,,東京都足立区竹の塚,35.79268254,139.794716,0,0,0,1,0,1,0,0,0,0,0,0,
区立第十四中学校一帯,130001,東京都,,東京都足立区西竹の塚,35.79183357,139.7888474,0,0,0,1,0,1,0,0,0,0,0,0,
区立舎人第一小学校・都営舎人町アパート一帯,130001,東京都,,東京都足立区舎人,35.81416432,139.7649867,0,0,0,1,0,1,0,0,0,0,0,0,
区立北鹿浜小学校一帯,130001,東京都,,東京都足立区鹿浜,35.78550765,139.7544938,0,0,0,1,0,1,0,0,0,0,0,0,
都営花畑第４アパート一帯,130001,東京都,,東京都足立区花畑,35.81272075,139.8214445,0,0,0,1,0,1,0,0,0,0,0,0,
宮城ファミリー公園・江南中学校一帯,130001,東京都,,東京都足立区宮城,35.75790613,139.7544203,0,0,0,1,0,1,0,0,0,0,0,0,
ハートアイランド新田一帯,130001,東京都,,東京都足立区新田,35.77091915,139.7477826,0,0,0,1,0,1,0,0,0,0,0,0,
西新井駅西口地区一帯,130001,東京都,,東京都足立区関原、西新井栄町,35.774227,139.787176,0,0,0,1,0,1,0,0,0,0,0,0,
都立足立高校一帯,130001,東京都,,東京都足立区中央本町,35.77001108,139.8049614,0,0,0,1,0,1,0,0,0,0,0,0,
東京電機大学一帯,130001,東京都,,東京都足立区千住旭町、日ノ出町,35.747815,139.806109,0,0,0,1,0,1,0,0,0,0,0,0,
千住大橋駅地区一帯,130001,東京都,,東京都足立区千住緑町、千住河原町、千住橋戸町,35.742372,139.797261,0,0,0,1,0,1,0,0,0,0,0,0,
水元公園・江戸川緑地一帯,130001,東京都,,東京都葛飾区東金町、水元公園,35.79036576,139.870056,0,0,0,1,0,1,0,0,0,0,0,0,
柴又野球場・江戸川緑地一帯,130001,東京都,,東京都葛飾区金町浄水場、柴又,35.75480687,139.8841169,0,0,0,1,0,1,0,0,0,0,0,0,
都営高砂団地一帯,130001,東京都,,東京都葛飾区鎌倉、高砂,35.74740517,139.873151,0,0,0,1,0,1,0,0,0,0,0,0,
奥戸運動場,130001,東京都,,東京都葛飾区奥戸、高砂,35.73599504,139.8606695,0,0,0,1,0,1,0,0,0,0,0,0,
新四ツ木橋地区東岸,130001,東京都,,東京都葛飾区小菅、東四つ木、堀切、四つ木,35.75125454,139.8176912,0,0,0,1,0,1,0,0,0,0,0,0,
新小岩公園・平井大橋地区,130001,東京都,,東京都葛飾区西新小岩,35.71632974,139.8528807,0,0,0,1,0,1,0,0,0,0,0,0,
上千葉砂原公園一帯,130001,東京都,,東京都葛飾区西亀有,35.7585133,139.8409195,0,0,0,1,0,1,0,0,0,0,0,0,
区役所・青戸団地一帯,130001,東京都,,東京都葛飾区青戸、立石,35.74683829,139.8498586,0,0,0,1,0,1,0,0,0,0,0,0,
東京理科大学一帯,130001,東京都,,東京都葛飾区南水元、新宿,35.772042,139.864197,0,0,0,1,0,1,0,0,0,0,0,0,
亀有一丁目一帯,130001,東京都,,東京都葛飾区亀有,35.757676,139.845546,0,0,0,1,0,1,0,0,0,0,0,0,
私学事業団総合運動場,130001,東京都,,東京都葛飾区東新小岩,35.721582,139.862695,0,0,0,1,0,1,0,0,0,0,0,0,
小菅東スポーツ公園,130001,東京都,,東京都葛飾区小菅,35.754283,139.822402,0,0,0,1,0,1,0,0,0,0,0,0,
小松川小学校,131237,東京都,江戸川区,東京都江戸川区平井4-1-23,35.703557,139.847447,0,0,0,1,0,0,0,0,1,0,0,0,車イス対応トイレ
小松川第二小学校,131237,東京都,江戸川区,東京都江戸川区小松川3-6-4,35.69729,139.849298,0,0,0,1,0,0,0,0,1,0,0,0,車イス対応トイレ
平井小学校,131237,東京都,江戸川区,東京都江戸川区平井6-35-1,35.710616,139.842218,0,0,0,1,0,0,0,0,1,0,0,0,車イス対応トイレ
旧平井第二小学校,131237,東京都,江戸川区,東京都江戸川区平井6-1-17,35.706529,139.836292,0,0,0,1,0,0,0,0,1,0,0,0,車イス対応トイレ
平井西小学校,131237,東京都,江戸川区,東京都江戸川区平井7-22-24,35.714566,139.839213,0,0,0,1,0,0,0,0,1,0,0,0,車イス対応トイレ
平井東小学校,131237,東京都,江戸川区,東京都江戸川区平井4-28-9,35.708187,139.847885,0,0,0,1,0,0,0,0,1,0,0,0,車イス対応トイレ
平井南小学校,131237,東京都,江戸川区,東京都江戸川区平井3-3-1,35.701923,139.841549,0,0,0,1,0,0,0,0,1,0,0,0,
松江小学校,131237,東京都,江戸川区,東京都江戸川区松江1-16-5,35.697601,139.87006,0,0,0,1,0,0,0,0,1,1,1,0,車イス対応トイレ（オストメイト対応）
西一之江小学校,131237,東京都,江戸川区,東京都江戸川区松江7-17-1,35.689959,139.873629,0,0,0,1,0,0,0,0,1,0,0,0,車イス対応トイレ
第二松江小学校,131237,東京都,江戸川区,東京都江戸川区松島2-16-20,35.704936,139.861495,0,0,0,1,0,0,0,0,1,0,0,0,車イス対応トイレ
西小松川小学校,131237,東京都,江戸川区,東京都江戸川区松島3-30-6,35.71158,139.862813,0,0,0,1,0,0,0,0,1,0,0,0,車イス対応トイレ
大杉小学校,131237,東京都,江戸川区,東京都江戸川区中央2-16-15,35.706108,139.873232,0,0,0,1,0,0,0,0,1,0,0,0,車イス対応トイレ
大杉第二小学校,131237,東京都,江戸川区,東京都江戸川区大杉3-11-1,35.706735,139.881204,0,0,0,1,0,0,0,0,1,0,0,0,車イス対応トイレ
第三松江小学校,131237,東京都,江戸川区,東京都江戸川区中央4-13-1,35.710435,139.867988,0,0,0,1,0,0,0,0,1,1,1,0,車イス対応トイレ（オストメイト対応）
大杉東小学校,131237,東京都,江戸川区,東京都江戸川区西一之江2-8-5,35.700834,139.87893,0,0,0,1,0,0,0,0,1,0,0,0,車イス対応トイレ
東小松川小学校,131237,東京都,江戸川区,東京都江戸川区東小松川3-27-1,35.692902,139.865527,0,0,0,1,0,0,0,0,1,0,0,0,車イス対応トイレ
船堀小学校,131237,東京都,江戸川区,東京都江戸川区船堀2-22-22,35.682868,139.862192,0,0,0,1,0,0,0,0,1,1,1,0,車イス対応トイレ（オストメイト対応）
船堀第二小学校,131237,東京都,江戸川区,東京都江戸川区船堀4-14-4,35.683148,139.867386,0,0,0,1,0,0,0,0,1,0,0,0,車イス対応トイレ
葛西小学校,131237,東京都,江戸川区,東京都江戸川区中葛西2-4-3,35.671986,139.873524,0,0,0,1,0,0,0,0,1,1,1,0,車イス対応トイレ（オストメイト対応）
二之江小学校,131237,東京都,江戸川区,東京都江戸川区江戸川5-18-3,35.67433,139.87926,0,0,0,1,0,0,0,0,1,0,0,0,車イス対応トイレ
二之江第二小学校,131237,東京都,江戸川区,東京都江戸川区春江町5-13,35.67988,139.876844,0,0,0,1,0,0,0,0,1,0,0,0,車イス対応トイレ
第二葛西小学校,131237,東京都,江戸川区,東京都江戸川区東葛西6-33-1,35.662504,139.878714,0,0,0,1,0,0,0,0,1,1,1,0,車イス対応トイレ（オストメイト対応）
第三葛西小学校,131237,東京都,江戸川区,東京都江戸川区北葛西4-2-19,35.670974,139.861385,0,0,0,1,0,0,0,0,1,0,0,0,車イス対応トイレ
第四葛西小学校,131237,東京都,江戸川区,東京都江戸川区中葛西8-8-1,35.658947,139.870924,0,0,0,1,0,0,0,0,1,0,0,0,車イス対応トイレ
第五葛西小学校,131237,東京都,江戸川区,東京都江戸川区北葛西2-13-33,35.674893,139.855709,0,0,0,1,0,0,0,0,1,0,0,0,車イス対応トイレ
第六葛西小学校,131237,東京都,江戸川区,東京都江戸川区西葛西4-5-1,35.667987,139.865203,0,0,0,1,0,0,0,0,1,0,0,0,車イス対応トイレ
第七葛西小学校,131237,東京都,江戸川区,東京都江戸川区西葛西7-8-1,35.659968,139.859697,0,0,0,1,0,0,0,0,1,0,0,0,車イス対応トイレ
南葛西小学校,131237,東京都,江戸川区,東京都江戸川区南葛西5-10-1,35.646751,139.874801,0,0,0,1,0,0,0,0,1,0,0,0,車イス対応トイレ
南葛西第二小学校,131237,東京都,江戸川区,東京都江戸川区南葛西7-5-9,35.650008,139.880215,0,0,0,1,0,0,0,0,1,0,0,0,車イス対応トイレ
南葛西第三小学校,131237,東京都,江戸川区,東京都江戸川区南葛西5-2-1,35.643627,139.870715,0,0,0,1,0,0,0,0,1,0,0,0,車イス対応トイレ
西葛西小学校,131237,東京都,江戸川区,東京都江戸川区西葛西3-9-44,35.6681,139.85743,0,0,0,1,0,0,0,0,1,0,0,0,車イス対応トイレ
新田小学校,131237,東京都,江戸川区,東京都江戸川区西葛西8-16-1,35.654571,139.862792,0,0,0,1,0,0,0,0,1,0,0,0,車イス対応トイレ
宇喜田小学校,131237,東京都,江戸川区,東京都江戸川区北葛西5-13-1,35.67451,139.865145,0,0,0,1,0,0,0,0,1,0,0,0,車イス対応トイレ
清新第一小学校,131237,東京都,江戸川区,東京都江戸川区清新町1-4-19,35.661666,139.853254,0,0,0,1,0,0,0,0,1,0,0,0,車イス対応トイレ
旧清新第二小学校,131237,東京都,江戸川区,東京都江戸川区清新町2-10-1,35.6547,139.85733,0,0,0,1,0,0,0,0,1,0,0,0,
清新ふたば小学校,131237,東京都,江戸川区,東京都江戸川区清新町1-1-38,35.657501,139.853001,0,0,0,1,0,0,0,0,1,0,0,0,車イス対応トイレ
臨海小学校,131237,東京都,江戸川区,東京都江戸川区臨海町2-2-11,35.651523,139.860363,0,0,0,1,0,0,0,0,1,0,0,0,
東葛西小学校,131237,東京都,江戸川区,東京都江戸川区東葛西8-23-1,35.65405,139.879718,0,0,0,1,0,0,0,0,1,0,0,0,車イス対応トイレ
瑞江小学校,131237,東京都,江戸川区,東京都江戸川区西瑞江3-39,35.68503,139.888005,0,0,0,1,0,0,0,0,1,0,0,0,車イス対応トイレ
春江小学校,131237,東京都,江戸川区,東京都江戸川区瑞江1-3-30,35.699164,139.893688,0,0,0,1,0,0,0,0,1,1,1,0,車イス対応トイレ（オストメイト対応）
新堀小学校,131237,東京都,江戸川区,東京都江戸川区新堀1-32-1,35.704425,139.888386,0,0,0,1,0,0,0,0,1,0,0,0,車イス対応トイレ
下鎌田小学校,131237,東京都,江戸川区,東京都江戸川区東瑞江3-11-1,35.69104,139.893748,0,0,0,1,0,0,0,0,1,0,0,0,車イス対応トイレ
下鎌田東小学校,131237,東京都,江戸川区,東京都江戸川区江戸川2-21,35.686736,139.90134,0,0,0,1,0,0,0,0,1,0,0,0,車イス対応トイレ
下鎌田西小学校,131237,東京都,江戸川区,東京都江戸川区瑞江4-19-10,35.692467,139.892899,0,0,0,1,0,0,0,0,1,0,0,0,車イス対応トイレ
江戸川小学校,131237,東京都,江戸川区,東京都江戸川区江戸川1-37,35.68597,139.90722,0,0,0,1,0,0,0,0,1,0,0,0,車イス対応トイレ
一之江小学校,131237,東京都,江戸川区,東京都江戸川区一之江4-5-1,35.689716,139.881204,0,0,0,1,0,0,0,0,1,0,0,0,車イス対応トイレ
一之江第二小学校,131237,東京都,江戸川区,東京都江戸川区春江町4-16,35.682016,139.878249,0,0,0,1,0,0,0,0,1,0,0,0,車イス対応トイレ
鹿本小学校,131237,東京都,江戸川区,東京都江戸川区松本2-35-7,35.718741,139.878818,0,0,0,1,0,0,0,0,1,0,0,0,車イス対応トイレ
鹿骨小学校,131237,東京都,江戸川区,東京都江戸川区鹿骨6-3-5,35.712619,139.884415,0,0,0,1,0,0,0,0,1,0,0,0,車イス対応トイレ
鹿骨東小学校,131237,東京都,江戸川区,東京都江戸川区鹿骨3-7-1,35.711555,139.892438,0,0,0,1,0,0,0,0,1,0,0,0,車イス対応トイレ
松本小学校,131237,東京都,江戸川区,東京都江戸川区鹿骨6-9-1,35.71519,139.8841,0,0,0,1,0,0,0,0,1,0,0,0,車イス対応トイレ
本一色小学校,131237,東京都,江戸川区,東京都江戸川区本一色2-10-1,35.71862,139.872303,0,0,0,1,0,0,0,0,1,0,0,0,車イス対応トイレ
篠崎小学校,131237,東京都,江戸川区,東京都江戸川区篠崎町3-2-18,35.704881,139.909277,0,0,0,1,0,0,0,0,1,1,1,0,車イス対応トイレ（オストメイト対応）
篠崎第二小学校,131237,東京都,江戸川区,東京都江戸川区上篠崎1-3-1,35.714611,139.900485,0,0,0,1,0,0,0,0,1,0,0,0,車イス対応トイレ
篠崎第三小学校,131237,東京都,江戸川区,東京都江戸川区東篠崎1-1-16,35.697243,139.913865,0,0,0,1,0,0,0,0,1,1,1,0,車イス対応トイレ（オストメイト対応）
篠崎第四小学校,131237,東京都,江戸川区,東京都江戸川区篠崎町8-12-8,35.704777,139.898829,0,0,0,1,0,0,0,0,1,0,0,0,車イス対応トイレ
篠崎第五小学校,131237,東京都,江戸川区,東京都江戸川区北篠崎2-5-1,35.7184,139.893056,0,0,0,1,0,0,0,0,1,0,0,0,車イス対応トイレ
南篠崎小学校,131237,東京都,江戸川区,東京都江戸川区南篠崎町4-27-5,35.698265,139.904129,0,0,0,1,0,0,0,0,1,0,0,0,車イス対応トイレ
鎌田小学校,131237,東京都,江戸川区,東京都江戸川区南篠崎町2-45-18,35.691274,139.904254,0,0,0,1,0,0,0,0,1,0,0,0,車イス対応トイレ
小岩小学校,131237,東京都,江戸川区,東京都江戸川区東小岩3-20-10,35.732814,139.892721,0,0,0,1,0,0,0,0,1,1,1,0,車イス対応トイレ（オストメイト対応）
東小岩小学校,131237,東京都,江戸川区,東京都江戸川区東小岩4-12-1,35.729312,139.889245,0,0,0,1,0,0,0,0,1,0,0,0,車イス対応トイレ
下小岩小学校,131237,東京都,江戸川区,東京都江戸川区南小岩7-8-1,35.728016,139.882626,0,0,0,1,0,0,0,0,1,0,0,0,
下小岩第二小学校,131237,東京都,江戸川区,東京都江戸川区南小岩5-5-1,35.725706,139.878724,0,0,0,1,0,0,0,0,1,0,0,0,車イス対応トイレ
上小岩小学校,131237,東京都,江戸川区,東京都江戸川区北小岩7-2-1,35.743133,139.889534,0,0,0,1,0,0,0,0,1,0,0,0,
上小岩第二小学校,131237,東京都,江戸川区,東京都江戸川区北小岩8-28-11,35.747669,139.886824,0,0,0,1,0,0,0,0,1,0,0,0,車イス対応トイレ
西小岩小学校,131237,東京都,江戸川区,東京都江戸川区西小岩3-19-12,35.735787,139.877609,0,0,0,1,0,0,0,0,1,0,0,0,車イス対応トイレ
旧上一色小学校,131237,東京都,江戸川区,東京都江戸川区西小岩2-4-1,35.732928,139.873237,0,0,0,1,0,0,0,0,1,0,0,0,車イス対応トイレ
上一色南小学校,131237,東京都,江戸川区,東京都江戸川区本一色3-28-24,35.722048,139.87095,0,0,0,1,0,0,0,0,1,0,0,0,車イス対応トイレ
南小岩小学校,131237,東京都,江戸川区,東京都江戸川区南小岩4-16-1,35.723092,139.884664,0,0,0,1,0,0,0,0,1,1,1,0,車イス対応トイレ（オストメイト対応）
南小岩第二小学校,131237,東京都,江戸川区,東京都江戸川区南小岩2-16-1,35.721928,139.889199,0,0,0,1,0,0,0,0,1,0,0,0,車イス対応トイレ
中小岩小学校,131237,東京都,江戸川区,東京都江戸川区北小岩3-12-22,35.73761,139.89206,0,0,0,1,0,0,0,0,1,0,0,0,車イス対応トイレ
北小岩小学校,131237,東京都,江戸川区,東京都江戸川区北小岩2-15-1,35.739981,139.885681,0,0,0,1,0,0,0,0,1,0,0,0,車イス対応トイレ
小松川第一中学校,131237,東京都,江戸川区,東京都江戸川区平井4-7-21,35.705605,139.84638,0,0,0,1,0,0,0,0,1,0,0,0,車イス対応トイレ
小松川第二中学校,131237,東京都,江戸川区,東京都江戸川区小松川2-10-2,35.697293,139.849226,0,0,0,1,0,0,0,0,1,1,1,0,車イス対応トイレ（オストメイト対応）
小松川第二中学校（夜間）,131237,東京都,江戸川区,東京都江戸川区平井3-20-1,35.702356,139.84284,0,0,0,1,0,0,0,0,1,1,1,0,車イス対応トイレ（オストメイト対応）
小松川第三中学校,131237,東京都,江戸川区,東京都江戸川区平井5-3-11,35.704782,139.838744,0,0,0,1,0,0,0,0,1,0,0,0,車イス対応トイレ
松江第一中学校,131237,東京都,江戸川区,東京都江戸川区松江5-5-1,35.688931,139.867302,0,0,0,1,0,0,0,0,1,0,0,0,車イス対応トイレ
松江第二中学校,131237,東京都,江戸川区,東京都江戸川区松島2-3-1,35.706182,139.859955,0,0,0,1,0,0,0,0,1,0,0,0,車イス対応トイレ
松江第三中学校,131237,東京都,江戸川区,東京都江戸川区中央1-20-1,35.708683,139.870214,0,0,0,1,0,0,0,0,1,0,0,0,
松江第四中学校,131237,東京都,江戸川区,東京都江戸川区西一之江1-16-1,35.6989,139.876577,0,0,0,1,0,0,0,0,1,0,0,0,車イス対応トイレ
松江第五中学校,131237,東京都,江戸川区,東京都江戸川区一之江6-18-1,35.688803,139.877401,0,0,0,1,0,0,0,0,1,1,1,0,車イス対応トイレ（オストメイト対応）
松江第六中学校,131237,東京都,江戸川区,東京都江戸川区松江7-16-18,35.691162,139.873918,0,0,0,1,0,0,0,0,1,0,0,0,車イス対応トイレ
二之江中学校,131237,東京都,江戸川区,東京都江戸川区春江町5-3-1,35.681896,139.877145,0,0,0,1,0,0,0,0,1,0,0,0,車イス対応トイレ
葛西中学校,131237,東京都,江戸川区,東京都江戸川区中葛西2-4-3,35.671428,139.872405,0,0,0,1,0,0,0,0,1,1,1,0,車イス対応トイレ（オストメイト対応）
葛西第二中学校,131237,東京都,江戸川区,東京都江戸川区宇喜田町1085,35.678848,139.861826,0,0,0,1,0,0,0,0,1,0,0,0,車イス対応トイレ
葛西第三中学校,131237,東京都,江戸川区,東京都江戸川区中葛西6-6-13,35.659662,139.865563,0,0,0,1,0,0,0,0,1,0,0,0,車イス対応トイレ
南葛西中学校,131237,東京都,江戸川区,東京都江戸川区南葛西5-12-1,35.645537,139.874947,0,0,0,1,0,0,0,0,1,0,0,0,車イス対応トイレ
南葛西第二中学校,131237,東京都,江戸川区,東京都江戸川区南葛西5-3-1,35.644845,139.871166,0,0,0,1,0,0,0,0,1,0,0,0,車イス対応トイレ
西葛西中学校,131237,東京都,江戸川区,東京都江戸川区西葛西5-10-18,35.666193,139.863268,0,0,0,1,0,0,0,0,1,0,0,0,車イス対応トイレ
東葛西中学校,131237,東京都,江戸川区,東京都江戸川区東葛西6-40-1,35.660896,139.879391,0,0,0,1,0,0,0,0,1,0,0,0,車イス対応トイレ
清新第一中学校,131237,東京都,江戸川区,東京都江戸川区清新町1-5-14,35.663197,139.851692,0,0,0,1,0,0,0,0,1,0,0,0,車イス対応トイレ
清新第二中学校,131237,東京都,江戸川区,東京都江戸川区清新町2-1-2,35.656675,139.852499,0,0,0,1,0,0,0,0,1,0,0,0,車イス対応トイレ
瑞江中学校,131237,東京都,江戸川区,東京都江戸川区江戸川4-16,35.680024,139.884469,0,0,0,1,0,0,0,0,1,0,0,0,車イス対応トイレ
瑞江第二中学校,131237,東京都,江戸川区,東京都江戸川区瑞江4-54-1,35.694649,139.894734,0,0,0,1,0,0,0,0,1,0,0,0,車イス対応トイレ
瑞江第三中学校,131237,東京都,江戸川区,東京都江戸川区東瑞江1-38-33,35.691554,139.899721,0,0,0,1,0,0,0,0,1,1,1,0,車イス対応トイレ（オストメイト対応）
春江中学校,131237,東京都,江戸川区,東京都江戸川区春江町2-47-1,35.701069,139.891364,0,0,0,1,0,0,0,0,1,0,0,0,車イス対応トイレ
鹿本中学校,131237,東京都,江戸川区,東京都江戸川区松本1-36-1,35.718319,139.876785,0,0,0,1,0,0,0,0,1,0,0,0,車イス対応トイレ
鹿骨中学校,131237,東京都,江戸川区,東京都江戸川区鹿骨2-12-1,35.707741,139.893444,0,0,0,1,0,0,0,0,1,0,0,0,車イス対応トイレ
篠崎中学校,131237,東京都,江戸川区,東京都江戸川区篠崎町5-12-19,35.702991,139.908814,0,0,0,1,0,0,0,0,1,0,0,0,車イス対応トイレ
篠崎第二中学校,131237,東京都,江戸川区,東京都江戸川区下篠崎町14-1,35.699531,139.91323,0,0,0,1,0,0,0,0,1,0,0,0,車イス対応トイレ
小岩第一中学校,131237,東京都,江戸川区,東京都江戸川区東小岩3-10-8,35.73054,139.892109,0,0,0,1,0,0,0,0,1,0,0,0,車イス対応トイレ
小岩第二中学校,131237,東京都,江戸川区,東京都江戸川区東小岩1-6-10,35.72139914,139.8905468,0,0,0,1,0,0,0,0,1,1,1,0,車イス対応トイレ（オストメイト対応）
小岩第三中学校,131237,東京都,江戸川区,東京都江戸川区北小岩8-19-1,35.746819,139.887478,0,0,0,1,0,0,0,0,1,0,0,0,車イス対応トイレ
小岩第四中学校,131237,東京都,江戸川区,東京都江戸川区西小岩3-9-18,35.736594,139.875013,0,0,0,1,0,0,0,0,1,0,0,0,車イス対応トイレ
小岩第五中学校,131237,東京都,江戸川区,東京都江戸川区鹿骨5-27-1,35.717419,139.885936,0,0,0,1,0,0,0,0,1,0,0,0,車イス対応トイレ
上一色中学校,131237,東京都,江戸川区,東京都江戸川区上一色1-8-11,35.723536,139.872802,0,0,0,1,0,0,0,0,1,0,0,0,車イス対応トイレ
篠崎公園・江戸川緑地一帯,130001,東京都,,東京都江戸川区北小岩、篠崎町、東小岩、上篠崎、北篠崎,35.71819705,139.9011118,0,0,0,0,0,1,0,0,0,0,0,0,
江戸川南部一帯,130001,東京都,,東京都江戸川区西葛西、南葛西、清新町、臨海町,35.65172059,139.8604537,0,0,0,0,0,1,0,0,0,0,0,0,
亀戸・大島・小松川地区,130001,東京都,,東京都江東区大島、東京都江戸川区小松川、平井,35.689844,139.849468,0,0,0,0,0,1,0,0,0,0,0,0,
船堀一丁目住宅一帯,130001,東京都,,東京都江戸川区船堀、東小松川、松江,35.68605352,139.8629158,0,0,0,0,0,1,0,0,0,0,0,0,
都立葛西工業高校・西瑞江住宅一帯,130001,東京都,,東京都江戸川区西瑞江、春江町,35.67963146,139.8766887,0,0,0,0,0,1,0,0,0,0,0,0,
行船公園・宇喜田住宅一帯,130001,東京都,,東京都江戸川区北葛西,35.67545028,139.8568159,0,0,0,0,0,1,0,0,0,0,0,0,
江戸川清掃工場一帯,130001,東京都,,東京都江戸川区江戸川,35.68490669,139.9034271,0,0,0,0,0,1,0,0,0,0,0,0,
江戸川スポーツランド周辺一帯,130001,東京都,,東京都江戸川区東篠崎、南篠崎町、下篠崎町,35.698323,139.916706,0,0,0,0,0,1,0,0,0,0,0,0,
都立江戸川高校一帯,130001,東京都,,東京都江戸川区中央、松島,35.708684,139.865621,0,0,0,0,0,1,0,0,0,0,0,0,
都営平井アパート一帯,130001,東京都,,東京都江戸川区平井,35.703087,139.840747,0,0,0,0,0,1,0,0,0,0,0,0,
浅川河川敷（長沼橋付近～市立上壱分方小学校付近）,132012,東京都,八王子市,東京都八王子市（長沼橋付近～市立上壱分方小学校付近）,35.64697407,139.3641834,0,0,0,1,0,0,0,0,0,0,0,0,
富士森公園,132012,東京都,八王子市,東京都八王子市台町2-2,35.65165283,139.3231655,0,0,0,1,0,0,0,0,0,0,0,0,
陵南公園,132012,東京都,八王子市,東京都八王子市長房町・東浅川町,35.6491319,139.288815,0,0,0,1,0,0,0,0,0,0,0,0,
小宮公園,132012,東京都,八王子市,東京都八王子市大谷町・暁町2丁目,35.67336453,139.3407582,0,0,0,1,0,0,0,0,0,0,0,0,
清水公園,132012,東京都,八王子市,東京都八王子市犬目町,35.682223,139.312723,0,0,0,1,0,0,0,0,0,0,0,0,
工学院大学,132012,東京都,八王子市,東京都八王子市中野町2665-1,35.684299,139.318722,0,0,0,1,0,0,0,0,0,0,0,0,
東京都立大学,132012,東京都,八王子市,東京都八王子市南大沢1-1,35.61672263,139.377078,0,0,0,1,0,0,0,0,0,0,0,0,
中央大学,132012,東京都,八王子市,東京都八王子市東中野742-1,35.641412,139.405432,0,0,0,1,0,0,0,0,0,0,0,0,
東京工科大学,132012,東京都,八王子市,東京都八王子市片倉町1404-1,35.626293,139.339326,0,0,0,1,0,0,0,0,0,0,0,0,
東京薬科大学,132012,東京都,八王子市,東京都八王子市堀之内1432-1,35.6386105,139.3839456,0,0,0,1,0,0,0,0,0,0,0,0,
創価大学,132012,東京都,八王子市,東京都八王子市丹木町1-236,35.69179205,139.325976,0,0,0,1,0,0,0,0,0,0,0,0,
拓殖大学,132012,東京都,八王子市,東京都八王子市館町815-1,35.63005432,139.2814153,0,0,0,1,0,0,0,0,0,0,0,0,
明星大学,132012,東京都,八王子市,東京都日野市程久保2-1-1,35.644889,139.408489,0,0,0,1,0,0,0,0,0,0,0,0,
第一小学校,132012,東京都,八王子市,東京都八王子市元横山町2-14-3,35.661374,139.336454,1,1,0,1,0,0,1,0,0,0,0,0,
第二小学校,132012,東京都,八王子市,東京都八王子市八木町7-1,35.661662,139.321919,1,1,0,1,0,0,1,0,0,0,0,0,
第三小学校,132012,東京都,八王子市,東京都八王子市寺町29-15,35.655327,139.332232,1,1,0,1,0,0,1,0,1,1,1,1,
第四小学校,132012,東京都,八王子市,東京都八王子市明神町2-15-1,35.657994,139.345998,1,1,0,1,0,0,1,0,1,0,0,1,
第五小学校,132012,東京都,八王子市,東京都八王子市千人町3-7-7,35.658743,139.308348,0,0,0,1,0,0,0,0,1,0,0,0,
いずみの森義務教育学校,132012,東京都,八王子市,東京都八王子市子安町2-19-1,35.6501504,139.3426231,1,1,0,1,0,0,1,0,1,1,1,1,
第七小学校,132012,東京都,八王子市,東京都八王子市台町4-2-1,35.656887,139.323715,1,1,0,1,0,0,1,0,1,1,1,1,
第八小学校,132012,東京都,八王子市,東京都八王子市石川町2065,35.671557,139.360782,1,1,0,1,0,0,1,0,1,0,0,1,
第九小学校,132012,東京都,八王子市,東京都八王子市中野上町2-14-1,35.670864,139.325107,1,1,0,1,0,0,1,0,1,0,0,1,
第十小学校,132012,東京都,八王子市,東京都八王子市大和田町7-5-1,35.666201,139.343628,1,1,0,1,0,0,1,0,1,1,1,1,
中野北小学校,132012,東京都,八王子市,東京都八王子市中野山王3-1-1,35.6742304,139.3267405,1,1,0,1,0,0,1,0,1,0,0,0,
清水小学校,132012,東京都,八王子市,東京都八王子市中野山王3-25-1,35.676105,139.3194633,1,1,0,1,0,0,1,0,1,0,0,1,
大和田小学校,132012,東京都,八王子市,東京都八王子市大和田町4-19-1,35.6655906,139.3543189,1,1,0,1,0,0,1,0,1,1,1,1,
小宮小学校,132012,東京都,八王子市,東京都八王子市小宮町1128-3,35.6837025,139.367681,0,0,0,1,0,0,0,0,1,0,0,1,
高倉小学校,132012,東京都,八王子市,東京都八王子市高倉町67-2,35.6623521,139.3657458,1,1,0,1,0,0,1,0,1,0,0,1,
宇津木台小学校,132012,東京都,八王子市,東京都八王子市久保山町2-18,35.6866992,139.3541877,0,0,0,1,0,0,0,0,1,0,0,1,
横山第一小学校,132012,東京都,八王子市,東京都八王子市館町74,35.6339213,139.304541,1,1,0,1,0,0,1,0,1,1,1,1,
横山第二小学校,132012,東京都,八王子市,東京都八王子市並木町26-1,35.6539768,139.3016128,1,1,0,1,0,0,1,0,1,0,0,1,
散田小学校,132012,東京都,八王子市,東京都八王子市散田町5-23-1,35.6477665,139.3015741,1,1,0,1,0,0,1,0,1,1,1,1,
長房小学校,132012,東京都,八王子市,東京都八王子市長房町340-4,35.6580207,139.3004545,1,1,0,1,0,0,1,0,1,0,0,1,
船田小学校,132012,東京都,八王子市,東京都八王子市長房町1041-2,35.6569761,139.2885972,1,1,0,1,0,0,1,0,1,0,0,1,
館小中学校　本校舎,132012,東京都,八王子市,東京都八王子市館町1097-15,35.630306,139.288142,1,1,0,1,0,0,1,0,1,0,0,1,
山田小学校,132012,東京都,八王子市,東京都八王子市山田町1553,35.6468001,139.3136064,0,0,0,1,0,0,0,0,1,0,0,1,
椚田小学校,132012,東京都,八王子市,東京都八王子市椚田町571-2,35.6366236,139.3022716,1,1,0,1,0,0,1,0,1,0,0,1,
緑が丘小学校,132012,東京都,八王子市,東京都八王子市寺田町405-5,35.6225484,139.3099857,1,1,0,1,0,0,1,0,1,1,0,1,
元八王子小学校,132012,東京都,八王子市,東京都八王子市弐分方町761,35.6697188,139.2920132,1,1,0,1,0,0,1,0,1,0,0,1,
元八王子東小学校,132012,東京都,八王子市,東京都八王子市叶谷町1521,35.6712829,139.3043426,1,1,0,1,0,0,1,0,1,0,0,1,
上壱分方小学校,132012,東京都,八王子市,東京都八王子市上壱分方町799-2,35.6848223,139.2839552,1,1,0,1,0,0,1,0,1,0,0,1,
城山小学校,132012,東京都,八王子市,東京都八王子市元八王子町2-1767,35.6591173,139.2776705,1,1,0,1,0,0,1,0,1,0,0,1,
弐分方小学校,132012,東京都,八王子市,東京都八王子市弐分方町520-1,35.6717518,139.2884885,1,1,0,1,0,0,1,0,1,0,0,1,
横川小学校,132012,東京都,八王子市,東京都八王子市横川町305,35.6672168,139.307323,1,1,0,1,0,0,1,0,1,0,0,1,
恩方第一小学校,132012,東京都,八王子市,東京都八王子市下恩方町1369,35.669618,139.254501,0,0,0,1,0,0,0,0,1,0,0,1,
恩方第二小学校,132012,東京都,八王子市,東京都八王子市上恩方町2193,35.6726981,139.2104752,1,1,0,1,0,0,1,0,1,0,0,1,
元木小学校,132012,東京都,八王子市,東京都八王子市下恩方町515-1,35.6810307,139.264482,1,1,0,1,0,0,1,0,1,0,0,0,
川口小学校,132012,東京都,八王子市,東京都八王子市川口町3675,35.6923798,139.2803691,1,1,0,1,0,0,1,0,1,0,0,1,
陶鎔小学校,132012,東京都,八王子市,東京都八王子市犬目町56,35.688031,139.3079529,0,0,0,1,0,0,0,0,1,0,0,1,
上川口小学校,132012,東京都,八王子市,東京都八王子市上川町1099,35.7055424,139.2500715,0,0,0,1,0,0,0,0,1,0,0,1,
美山小学校,132012,東京都,八王子市,東京都八王子市美山町1892,35.6909329,139.2483168,1,1,0,1,0,0,1,0,1,0,0,0,
楢原小学校,132012,東京都,八王子市,東京都八王子市楢原町1287-2,35.6755713,139.307395,0,0,0,1,0,0,0,0,1,0,0,1,
松枝小学校,132012,東京都,八王子市,東京都八王子市楢原町601-13,35.6851367,139.3022952,1,1,0,1,0,0,1,0,1,0,0,1,
加住小中学校　本校舎,132012,東京都,八王子市,東京都八王子市加住町1-191,35.7019684,139.3168628,1,1,0,1,0,0,1,0,1,1,1,1,
由井第一小学校,132012,東京都,八王子市,東京都八王子市打越町348-1,35.645793,139.3562971,1,1,0,1,0,0,1,0,1,1,1,1,
由井第二小学校,132012,東京都,八王子市,東京都八王子市片倉町2180,35.6366075,139.3382101,0,0,0,1,0,0,0,0,1,0,0,1,
由井第三小学校,132012,東京都,八王子市,東京都八王子市小比企町1201,35.642756,139.327009,1,1,0,1,0,0,1,0,1,1,0,1,
長沼小学校,132012,東京都,八王子市,東京都八王子市長沼町707-3,35.6424712,139.3654605,0,0,0,1,0,0,0,0,1,1,0,1,
片倉台小学校,132012,東京都,八王子市,東京都八王子市片倉町1318,35.6313112,139.3461152,1,1,0,1,0,0,1,0,1,0,0,1,
高嶺小学校,132012,東京都,八王子市,東京都八王子市北野台4-21-1,35.6284006,139.3507372,1,1,0,1,0,0,1,0,1,0,0,1,
みなみ野小学校（みなみ野小中学校）,132012,東京都,八王子市,東京都八王子市みなみ野6-14-1,35.6328271,139.3233061,1,1,0,1,0,0,1,0,1,1,0,1,
みなみ野君田小学校,132012,東京都,八王子市,東京都八王子市みなみ野4-3-1,35.6273,139.324708,0,0,0,1,0,0,0,0,1,1,1,1,
七国小学校,132012,東京都,八王子市,東京都八王子市七国5-27-1,35.6207126,139.3207043,1,1,0,1,0,0,1,0,1,1,1,1,
浅川小学校,132012,東京都,八王子市,東京都八王子市初沢町1335,35.640287,139.2821207,1,1,0,1,0,0,1,0,1,0,0,1,
東浅川小学校,132012,東京都,八王子市,東京都八王子市東浅川町550-22,35.642836,139.286612,1,1,0,1,0,0,1,0,1,1,1,1,
由木中央小学校,132012,東京都,八王子市,東京都八王子市下柚木25,35.6299893,139.3834015,1,1,0,1,0,0,1,0,1,1,1,1,
由木東小学校,132012,東京都,八王子市,東京都八王子市東中野1347,35.6334395,139.407941,0,0,0,1,0,0,0,0,1,1,1,1,
由木西小学校,132012,東京都,八王子市,東京都八王子市上柚木538-1,35.6231374,139.3614006,1,1,0,1,0,0,1,0,1,0,0,1,
鹿島小学校,132012,東京都,八王子市,東京都八王子市鹿島13,35.6335373,139.4260894,1,1,0,1,0,0,1,0,1,0,0,1,
松が谷小学校,132012,東京都,八王子市,東京都八王子市松が谷12,35.6283542,139.4136823,1,1,0,1,0,0,1,0,1,0,0,0,
中山小学校,132012,東京都,八王子市,東京都八王子市中山1155,35.6256704,139.3584395,1,1,0,1,0,0,1,0,1,0,0,1,
柏木小学校,132012,東京都,八王子市,東京都八王子市南大沢3-3,35.6100445,139.3824467,1,1,0,1,0,0,1,0,1,0,0,1,
南大沢小学校,132012,東京都,八王子市,東京都八王子市南大沢4-18,35.6082392,139.3744641,0,0,0,1,0,0,0,0,1,0,0,1,
宮上小学校,132012,東京都,八王子市,東京都八王子市南大沢5-10,35.610225,139.3713504,1,1,0,1,0,0,1,0,1,0,0,1,
秋葉台小学校,132012,東京都,八王子市,東京都八王子市別所2-5,35.6246655,139.4066191,1,1,0,1,0,0,1,0,1,1,1,1,
別所小学校,132012,東京都,八王子市,東京都八王子市別所2-44,35.6148775,139.3954677,1,1,0,1,0,0,1,0,1,0,0,0,
愛宕小学校,132012,東京都,八王子市,東京都八王子市上柚木3-20,35.6191323,139.373136,1,1,0,1,0,0,1,0,1,0,0,0,
松木小学校,132012,東京都,八王子市,東京都八王子市松木57-3,35.621871,139.3934482,1,1,0,1,0,0,1,0,1,0,0,0,
下柚木小学校,132012,東京都,八王子市,東京都八王子市下柚木3-9,35.6225708,139.380877,1,1,0,1,0,0,1,0,1,0,0,0,
上柚木小学校,132012,東京都,八王子市,東京都八王子市上柚木3-15,35.6159716,139.3689115,1,1,0,1,0,0,1,0,1,0,0,0,
長池小学校,132012,東京都,八王子市,東京都八王子市別所1-55,35.6107611,139.3884406,1,1,0,1,0,0,1,0,1,0,0,0,
鑓水小学校,132012,東京都,八王子市,東京都八王子市鑓水2-74,35.6126859,139.3636259,1,1,0,1,0,0,1,0,1,0,0,0,
第一中学校,132012,東京都,八王子市,東京都八王子市石川町2957-1,35.670015,139.361324,1,1,0,1,0,0,1,0,0,1,1,1,
第二中学校,132012,東京都,八王子市,東京都八王子市中野上町4-28-1,35.6706027,139.3152,0,0,0,1,0,0,0,0,1,1,0,1,
第四中学校,132012,東京都,八王子市,東京都八王子市元本郷町2-21-1,35.666206,139.319825,0,0,0,1,0,0,0,0,1,1,1,1,
第五中学校,132012,東京都,八王子市,東京都八王子市明神町4-19-1,35.66123,139.344798,0,0,0,1,0,0,0,0,1,1,1,1,
第六中学校,132012,東京都,八王子市,東京都八王子市上野町97,35.653216,139.329919,0,0,0,1,0,0,0,0,1,1,0,1,
第七中学校,132012,東京都,八王子市,東京都八王子市散田町2-2-1,35.650372,139.316251,1,1,0,1,0,0,1,0,1,1,0,1,
ひよどり山中学校,132012,東京都,八王子市,東京都八王子市暁町3-1-1,35.6755723,139.3390172,1,1,0,1,0,0,1,0,1,1,0,1,
甲ノ原中学校,132012,東京都,八王子市,東京都八王子市中野町2639-2,35.6827098,139.3218102,0,0,0,1,0,0,0,0,1,0,0,1,
石川中学校,132012,東京都,八王子市,東京都八王子市久保山町2-55,35.683133,139.3574514,1,1,0,1,0,0,1,0,1,1,1,1,
横山中学校,132012,東京都,八王子市,東京都八王子市散田町5-22-36,35.6487498,139.3025796,1,1,0,1,0,0,1,0,1,1,1,1,
長房中学校,132012,東京都,八王子市,東京都八王子市長房町1041-1,35.6581676,139.2882472,0,0,0,1,0,0,0,0,1,0,0,1,
館小中学校　館中学校分校舎,132012,東京都,八王子市,東京都八王子市館町2786,35.627596,139.291161,1,1,0,1,0,0,1,0,1,0,0,0,
椚田中学校,132012,東京都,八王子市,東京都八王子市椚田町172,35.6340547,139.3077852,1,1,0,1,0,0,1,0,1,0,0,0,
元八王子中学校,132012,東京都,八王子市,東京都八王子市大楽寺町415,35.6723435,139.2937158,1,1,0,1,0,0,1,0,1,1,1,1,
四谷中学校,132012,東京都,八王子市,東京都八王子市四谷町555,35.6774708,139.2962793,0,0,0,1,0,0,0,0,1,1,1,1,
横川中学校,132012,東京都,八王子市,東京都八王子市横川町364,35.668461,139.3053287,1,1,0,1,0,0,1,0,1,0,0,1,
城山中学校,132012,東京都,八王子市,東京都八王子市川町792-2,35.6693463,139.2819975,1,1,0,1,0,0,1,0,1,0,0,0,
恩方中学校,132012,東京都,八王子市,東京都八王子市上恩方町11,35.6698465,139.2426462,0,0,0,1,0,0,0,0,1,0,0,1,
川口中学校,132012,東京都,八王子市,東京都八王子市川口町2555,35.6938824,139.283916,1,1,0,1,0,0,1,0,1,1,0,1,
楢原中学校,132012,東京都,八王子市,東京都八王子市楢原町1235,35.6786573,139.3139749,0,0,0,1,0,0,0,0,1,0,0,1,
加住小中学校　分校舎,132012,東京都,八王子市,東京都八王子市宮下町108-7,35.7039764,139.3137019,0,0,0,1,0,0,0,0,1,0,0,0,
由井中学校,132012,東京都,八王子市,東京都八王子市片倉町553,35.6449815,139.3398402,1,1,0,1,0,0,1,0,1,0,0,0,
打越中学校,132012,東京都,八王子市,東京都八王子市打越町349-1,35.6453653,139.3575664,1,1,0,1,0,0,1,0,1,0,0,1,
みなみ野中学校（みなみ野小中学校）,132012,東京都,八王子市,東京都八王子市みなみ野6-14-2,35.6322439,139.322259,1,1,0,1,0,0,1,0,1,1,0,1,
七国中学校,132012,東京都,八王子市,東京都八王子市七国6-41-1,35.6207376,139.3221013,1,1,0,1,0,0,1,0,1,1,0,1,
浅川中学校,132012,東京都,八王子市,東京都八王子市初沢町1370,35.6385067,139.2799488,1,1,0,1,0,0,1,0,1,0,0,1,
陵南中学校,132012,東京都,八王子市,東京都八王子市東浅川町553-9,35.6455251,139.2932472,1,1,0,1,0,0,1,0,1,0,0,1,
由木中学校,132012,東京都,八王子市,東京都八王子市下柚木2-34-2,35.627023,139.3851098,1,1,0,1,0,0,1,0,1,0,0,1,
松が谷中学校,132012,東京都,八王子市,東京都八王子市松が谷23,35.6298763,139.4174708,1,1,0,1,0,0,1,0,1,0,0,0,
中山中学校,132012,東京都,八王子市,東京都八王子市中山1158-1,35.6242622,139.3579563,0,0,0,1,0,0,0,0,1,0,0,1,
南大沢中学校,132012,東京都,八王子市,東京都八王子市南大沢3-7,35.6083975,139.380447,1,1,0,1,0,0,1,0,1,0,0,1,
宮上中学校,132012,東京都,八王子市,東京都八王子市南大沢5-5,35.6128469,139.3730752,1,1,0,1,0,0,1,0,1,0,0,1,
別所中学校,132012,東京都,八王子市,東京都八王子市別所2-28,35.6188216,139.4001671,0,0,0,1,0,0,0,0,1,0,0,1,
上柚木中学校,132012,東京都,八王子市,東京都八王子市上柚木3-17,35.6175992,139.370489,1,1,0,1,0,0,1,0,1,0,0,0,
松木中学校,132012,東京都,八王子市,東京都八王子市別所1-34-1,35.6180548,139.3918457,1,1,0,1,0,0,1,0,1,1,0,1,
鑓水中学校,132012,東京都,八王子市,東京都八王子市鑓水2-67,35.6125053,139.3591319,1,1,0,1,0,0,1,0,1,0,0,0,
高尾山学園（小・中学部）,132012,東京都,八王子市,東京都八王子市館町1097-30,35.6246091,139.2886625,1,1,0,1,0,0,1,0,1,0,0,1,
稲荷山行政資料保管等施設（旧稲荷山小学校）,132012,東京都,八王子市,東京都八王子市寺田町1455-3,35.6204238,139.3002089,1,1,0,1,0,0,1,0,1,1,0,0,
デジタルハリウッド大学,132012,東京都,八王子市,東京都八王子市松が谷1-1,35.6298348,139.4214843,1,1,0,1,0,0,1,0,0,0,0,0,
夕やけ小やけふれあいの里,132012,東京都,八王子市,東京都八王子市上恩方町2030,35.6695985,139.2164331,1,1,0,1,0,0,1,0,1,1,0,1,
八王子桑志高等学校,132012,東京都,八王子市,東京都八王子市千人町4-8-1,35.6580902,139.3053735,0,0,0,1,0,0,0,0,0,0,0,0,
